{
"type": "FeatureCollection",
"name": "centroid_SCatHospedaje",
"crs": { "type": "name", "properties": { "name": "urn:ogc:def:crs:EPSG::4686" } },
"features": [
{ "type": "Feature", "properties": { "OBJECTID": 1, "SCaCodigo": "001344", "SCaTipo": 0, "SCaNombre": "LOS SOCHES", "SHAPE_Length": 0.015568562520025456, "SHAPE_Area": 9.9229339586494346e-06, "CountHospedaje": 0 }, "geometry": { "type": "Point", "coordinates": [ -74.088686412238772, 4.499815846685506 ] } },
{ "type": "Feature", "properties": { "OBJECTID": 2, "SCaCodigo": "205318", "SCaTipo": 2, "SCaNombre": "SAN BERNARDINO XVIII", "SHAPE_Length": 0.008497951675825734, "SHAPE_Area": 4.5193943100943893e-06, "CountHospedaje": 0 }, "geometry": { "type": "Point", "coordinates": [ -74.211467125700864, 4.616265960379872 ] } },
{ "type": "Feature", "properties": { "OBJECTID": 3, "SCaCodigo": "101302", "SCaTipo": 1, "SCaNombre": "MOLINO RURAL", "SHAPE_Length": 0.0096825496780591144, "SHAPE_Area": 1.2483558575674772e-06, "CountHospedaje": 0 }, "geometry": { "type": "Point", "coordinates": [ -74.069795703098208, 4.56901213546471 ] } },
{ "type": "Feature", "properties": { "OBJECTID": 4, "SCaCodigo": "007104", "SCaTipo": 0, "SCaNombre": "TEUSAQUILLO", "SHAPE_Length": 0.02572174663291079, "SHAPE_Area": 2.9044688678863782e-05, "CountHospedaje": 0 }, "geometry": { "type": "Point", "coordinates": [ -74.072308818498456, 4.623090046503404 ] } },
{ "type": "Feature", "properties": { "OBJECTID": 5, "SCaCodigo": "005609", "SCaTipo": 0, "SCaNombre": "TABORA", "SHAPE_Length": 0.020947927378435351, "SHAPE_Area": 2.6948540710598871e-05, "CountHospedaje": 0 }, "geometry": { "type": "Point", "coordinates": [ -74.099231835266153, 4.694005688535559 ] } },
{ "type": "Feature", "properties": { "OBJECTID": 6, "SCaCodigo": "008408", "SCaTipo": 0, "SCaNombre": "SANTA ANA", "SHAPE_Length": 0.033013154382945262, "SHAPE_Area": 4.7429373504522825e-05, "CountHospedaje": 0 }, "geometry": { "type": "Point", "coordinates": [ -74.030052897229268, 4.686707839794432 ] } },
{ "type": "Feature", "properties": { "OBJECTID": 7, "SCaCodigo": "001333", "SCaTipo": 0, "SCaNombre": "ALTOS DEL POBLADO", "SHAPE_Length": 0.0088215343358770577, "SHAPE_Area": 4.3607238236267503e-06, "CountHospedaje": 0 }, "geometry": { "type": "Point", "coordinates": [ -74.087098522279959, 4.548849660942005 ] } },
{ "type": "Feature", "properties": { "OBJECTID": 8, "SCaCodigo": "103205", "SCaTipo": 1, "SCaNombre": "RAIZAL", "SHAPE_Length": 0.1169617635939338, "SHAPE_Area": 0.00041336275436466163, "CountHospedaje": 0 }, "geometry": { "type": "Point", "coordinates": [ -74.142477273126701, 4.18773542311606 ] } },
{ "type": "Feature", "properties": { "OBJECTID": 9, "SCaCodigo": "009119", "SCaTipo": 0, "SCaNombre": "ATENAS", "SHAPE_Length": 0.026614199174450359, "SHAPE_Area": 2.1718191600139533e-05, "CountHospedaje": 0 }, "geometry": { "type": "Point", "coordinates": [ -74.068768971677457, 4.730809115412773 ] } },
{ "type": "Feature", "properties": { "OBJECTID": 10, "SCaCodigo": "008511", "SCaTipo": 0, "SCaNombre": "CEDRO NARVAEZ", "SHAPE_Length": 0.033577033015289658, "SHAPE_Area": 2.357182844286954e-05, "CountHospedaje": 0 }, "geometry": { "type": "Point", "coordinates": [ -74.034098005481482, 4.721332305589455 ] } },
{ "type": "Feature", "properties": { "OBJECTID": 11, "SCaCodigo": "009232", "SCaTipo": 0, "SCaNombre": "SABANA DE TIBABUYES", "SHAPE_Length": 0.034324620565676978, "SHAPE_Area": 4.2041650500886778e-05, "CountHospedaje": 0 }, "geometry": { "type": "Point", "coordinates": [ -74.108772099373994, 4.749014569785826 ] } },
{ "type": "Feature", "properties": { "OBJECTID": 12, "SCaCodigo": "004536", "SCaTipo": 0, "SCaNombre": "EL RUBI", "SHAPE_Length": 0.017597774085235642, "SHAPE_Area": 1.3835595158320116e-05, "CountHospedaje": 0 }, "geometry": { "type": "Point", "coordinates": [ -74.176401340303215, 4.609186014504121 ] } },
{ "type": "Feature", "properties": { "OBJECTID": 13, "SCaCodigo": "102502", "SCaTipo": 1, "SCaNombre": "EL UVAL RURAL", "SHAPE_Length": 0.16099344361067644, "SHAPE_Area": 0.00070780883181200934, "CountHospedaje": 0 }, "geometry": { "type": "Point", "coordinates": [ -74.100112110579033, 4.471589934678176 ] } },
{ "type": "Feature", "properties": { "OBJECTID": 14, "SCaCodigo": "002630", "SCaTipo": 0, "SCaNombre": "EL PORTAL DEL DIVINO", "SHAPE_Length": 0.015646986449084573, "SHAPE_Area": 8.8545473991315385e-06, "CountHospedaje": 0 }, "geometry": { "type": "Point", "coordinates": [ -74.097790542235217, 4.4862146134653 ] } },
{ "type": "Feature", "properties": { "OBJECTID": 15, "SCaCodigo": "008104", "SCaTipo": 0, "SCaNombre": "LA PERSEVERANCIA", "SHAPE_Length": 0.012697667520455447, "SHAPE_Area": 8.4988159495151671e-06, "CountHospedaje": 0 }, "geometry": { "type": "Point", "coordinates": [ -74.064420003314652, 4.617608555968704 ] } },
{ "type": "Feature", "properties": { "OBJECTID": 16, "SCaCodigo": "004110", "SCaTipo": 0, "SCaNombre": "LA PEPITA", "SHAPE_Length": 0.021860659230555912, "SHAPE_Area": 1.9181678226792939e-05, "CountHospedaje": 0 }, "geometry": { "type": "Point", "coordinates": [ -74.089655321398638, 4.604831720973804 ] } },
{ "type": "Feature", "properties": { "OBJECTID": 17, "SCaCodigo": "001201", "SCaTipo": 0, "SCaNombre": "SEVILLA", "SHAPE_Length": 0.0092308591615484735, "SHAPE_Area": 5.0387358069457193e-06, "CountHospedaje": 0 }, "geometry": { "type": "Point", "coordinates": [ -74.090811998453233, 4.588729007883011 ] } },
{ "type": "Feature", "properties": { "OBJECTID": 18, "SCaCodigo": "009246", "SCaTipo": 0, "SCaNombre": "DELMONTE", "SHAPE_Length": 0.0075611214571907519, "SHAPE_Area": 2.5134438647947441e-06, "CountHospedaje": 0 }, "geometry": { "type": "Point", "coordinates": [ -74.074059112955453, 4.758918048380337 ] } },
{ "type": "Feature", "properties": { "OBJECTID": 19, "SCaCodigo": "005647", "SCaTipo": 0, "SCaNombre": "VILLAS DE GRANADA", "SHAPE_Length": 0.020060793856605065, "SHAPE_Area": 1.9099665196038414e-05, "CountHospedaje": 0 }, "geometry": { "type": "Point", "coordinates": [ -74.12603663765826, 4.715201228445765 ] } },
{ "type": "Feature", "properties": { "OBJECTID": 20, "SCaCodigo": "004594", "SCaTipo": 0, "SCaNombre": "SAN ANTONIO", "SHAPE_Length": 0.021005542355382233, "SHAPE_Area": 1.7923388247637596e-05, "CountHospedaje": 0 }, "geometry": { "type": "Point", "coordinates": [ -74.197322360178248, 4.62515810472865 ] } },
{ "type": "Feature", "properties": { "OBJECTID": 21, "SCaCodigo": "005623", "SCaTipo": 0, "SCaNombre": "LOS ANGELES", "SHAPE_Length": 0.025531812782467946, "SHAPE_Area": 4.0191566157048653e-05, "CountHospedaje": 0 }, "geometry": { "type": "Point", "coordinates": [ -74.120093601080569, 4.696542569269671 ] } },
{ "type": "Feature", "properties": { "OBJECTID": 22, "SCaCodigo": "008407", "SCaTipo": 0, "SCaNombre": "USAQUEN", "SHAPE_Length": 0.038063061079447798, "SHAPE_Area": 5.4329732408065471e-05, "CountHospedaje": 0 }, "geometry": { "type": "Point", "coordinates": [ -74.029359777505491, 4.692966355496607 ] } },
{ "type": "Feature", "properties": { "OBJECTID": 23, "SCaCodigo": "004630", "SCaTipo": 0, "SCaNombre": "PARCELA EL PORVENIR", "SHAPE_Length": 0.050439835211561326, "SHAPE_Area": 4.9180800201890149e-05, "CountHospedaje": 1 }, "geometry": { "type": "Point", "coordinates": [ -74.186570751218582, 4.639666803731624 ] } },
{ "type": "Feature", "properties": { "OBJECTID": 24, "SCaCodigo": "005305", "SCaTipo": 0, "SCaNombre": "LA PATRIA", "SHAPE_Length": 0.018537343287957975, "SHAPE_Area": 1.7006357452365351e-05, "CountHospedaje": 0 }, "geometry": { "type": "Point", "coordinates": [ -74.064968165501611, 4.676709683924764 ] } },
{ "type": "Feature", "properties": { "OBJECTID": 25, "SCaCodigo": "002510", "SCaTipo": 0, "SCaNombre": "LA PICOTA ORIENTAL", "SHAPE_Length": 0.022165477779020903, "SHAPE_Area": 1.5371779832110815e-05, "CountHospedaje": 0 }, "geometry": { "type": "Point", "coordinates": [ -74.113154653152478, 4.545081164554744 ] } },
{ "type": "Feature", "properties": { "OBJECTID": 26, "SCaCodigo": "002517", "SCaTipo": 0, "SCaNombre": "LUCERO DEL SUR", "SHAPE_Length": 0.036432011738266948, "SHAPE_Area": 2.975730468949882e-05, "CountHospedaje": 0 }, "geometry": { "type": "Point", "coordinates": [ -74.141235937346337, 4.551248369460119 ] } },
{ "type": "Feature", "properties": { "OBJECTID": 27, "SCaCodigo": "005103", "SCaTipo": 0, "SCaNombre": "SAN MIGUEL", "SHAPE_Length": 0.018880020636925118, "SHAPE_Area": 2.0124188499371161e-05, "CountHospedaje": 0 }, "geometry": { "type": "Point", "coordinates": [ -74.078376290797294, 4.661775516839954 ] } },
{ "type": "Feature", "properties": { "OBJECTID": 28, "SCaCodigo": "005615", "SCaTipo": 0, "SCaNombre": "LA SOLEDAD NORTE", "SHAPE_Length": 0.019634188114681667, "SHAPE_Area": 2.3076730867048994e-05, "CountHospedaje": 0 }, "geometry": { "type": "Point", "coordinates": [ -74.102723164125848, 4.696977453808683 ] } },
{ "type": "Feature", "properties": { "OBJECTID": 29, "SCaCodigo": "008519", "SCaTipo": 0, "SCaNombre": "ESTRELLA DEL NORTE", "SHAPE_Length": 0.030769677850307157, "SHAPE_Area": 4.5482939946058896e-05, "CountHospedaje": 1 }, "geometry": { "type": "Point", "coordinates": [ -74.043189611462253, 4.738560194422013 ] } },
{ "type": "Feature", "properties": { "OBJECTID": 30, "SCaCodigo": "008410", "SCaTipo": 0, "SCaNombre": "ESCUELA DE INFANTERIA", "SHAPE_Length": 0.026279115287333669, "SHAPE_Area": 4.2236847012995258e-05, "CountHospedaje": 0 }, "geometry": { "type": "Point", "coordinates": [ -74.040115316227741, 4.684168549728388 ] } },
{ "type": "Feature", "properties": { "OBJECTID": 31, "SCaCodigo": "008409", "SCaTipo": 0, "SCaNombre": "ESCUELA DE CABALLERIA I", "SHAPE_Length": 0.013196928908158658, "SHAPE_Area": 5.8196805553013458e-06, "CountHospedaje": 0 }, "geometry": { "type": "Point", "coordinates": [ -74.032975176666994, 4.684784712580721 ] } },
{ "type": "Feature", "properties": { "OBJECTID": 32, "SCaCodigo": "006506", "SCaTipo": 0, "SCaNombre": "CASTILLA", "SHAPE_Length": 0.030854552792094793, "SHAPE_Area": 3.8316296919555495e-05, "CountHospedaje": 0 }, "geometry": { "type": "Point", "coordinates": [ -74.143621267465988, 4.639473274575832 ] } },
{ "type": "Feature", "properties": { "OBJECTID": 33, "SCaCodigo": "008529", "SCaTipo": 0, "SCaNombre": "SAN JOSE DE USAQUEN", "SHAPE_Length": 0.049077313959379212, "SHAPE_Area": 7.9846905784831384e-05, "CountHospedaje": 0 }, "geometry": { "type": "Point", "coordinates": [ -74.032886316362493, 4.754658059298643 ] } },
{ "type": "Feature", "properties": { "OBJECTID": 34, "SCaCodigo": "006508", "SCaTipo": 0, "SCaNombre": "LAS DOS AVENIDAS", "SHAPE_Length": 0.034973049959844238, "SHAPE_Area": 4.7426334772838604e-05, "CountHospedaje": 0 }, "geometry": { "type": "Point", "coordinates": [ -74.142243279053687, 4.633254038336109 ] } },
{ "type": "Feature", "properties": { "OBJECTID": 35, "SCaCodigo": "001408", "SCaTipo": 0, "SCaNombre": "VILLA DE LOS ALPES", "SHAPE_Length": 0.015576904398975714, "SHAPE_Area": 1.3653270066775021e-05, "CountHospedaje": 0 }, "geometry": { "type": "Point", "coordinates": [ -74.096990828232961, 4.559445573917036 ] } },
{ "type": "Feature", "properties": { "OBJECTID": 36, "SCaCodigo": "004108", "SCaTipo": 0, "SCaNombre": "SANTA ISABEL", "SHAPE_Length": 0.021416272846266942, "SHAPE_Area": 2.6443553141129286e-05, "CountHospedaje": 0 }, "geometry": { "type": "Point", "coordinates": [ -74.099445923072153, 4.600046794728721 ] } },
{ "type": "Feature", "properties": { "OBJECTID": 37, "SCaCodigo": "005603", "SCaTipo": 0, "SCaNombre": "BOYACA", "SHAPE_Length": 0.027712917476229334, "SHAPE_Area": 4.7487248559311298e-05, "CountHospedaje": 0 }, "geometry": { "type": "Point", "coordinates": [ -74.099643122906883, 4.686109914408402 ] } },
{ "type": "Feature", "properties": { "OBJECTID": 38, "SCaCodigo": "006511", "SCaTipo": 0, "SCaNombre": "LA PAMPA", "SHAPE_Length": 0.011353837013745465, "SHAPE_Area": 4.5972150746548616e-06, "CountHospedaje": 0 }, "geometry": { "type": "Point", "coordinates": [ -74.138934566779881, 4.652111682411294 ] } },
{ "type": "Feature", "properties": { "OBJECTID": 39, "SCaCodigo": "001315", "SCaTipo": 0, "SCaNombre": "ALTAMIRA", "SHAPE_Length": 0.027565100981534255, "SHAPE_Area": 3.1963737858966931e-05, "CountHospedaje": 0 }, "geometry": { "type": "Point", "coordinates": [ -74.085689404753793, 4.542117787227747 ] } },
{ "type": "Feature", "properties": { "OBJECTID": 40, "SCaCodigo": "008308", "SCaTipo": 0, "SCaNombre": "EL CHICO", "SHAPE_Length": 0.038250167575977129, "SHAPE_Area": 4.9468135821307585e-05, "CountHospedaje": 0 }, "geometry": { "type": "Point", "coordinates": [ -74.051643989293524, 4.673758683158422 ] } },
{ "type": "Feature", "properties": { "OBJECTID": 41, "SCaCodigo": "105104", "SCaTipo": 1, "SCaNombre": "EL TINTAL", "SHAPE_Length": 0.061968347870505931, "SHAPE_Area": 3.3868409081209772e-05, "CountHospedaje": 0 }, "geometry": { "type": "Point", "coordinates": [ -74.16441812682659, 4.669869038226605 ] } },
{ "type": "Feature", "properties": { "OBJECTID": 42, "SCaCodigo": "001323", "SCaTipo": 0, "SCaNombre": "NUEVA DELHI", "SHAPE_Length": 0.01340099993773974, "SHAPE_Area": 9.5742063283291102e-06, "CountHospedaje": 0 }, "geometry": { "type": "Point", "coordinates": [ -74.088050024729867, 4.529570273413721 ] } },
{ "type": "Feature", "properties": { "OBJECTID": 43, "SCaCodigo": "007303", "SCaTipo": 0, "SCaNombre": "COLOMBIA", "SHAPE_Length": 0.018925143776705896, "SHAPE_Area": 2.2545736919332564e-05, "CountHospedaje": 0 }, "geometry": { "type": "Point", "coordinates": [ -74.066428463582085, 4.65967028148703 ] } },
{ "type": "Feature", "properties": { "OBJECTID": 44, "SCaCodigo": "006315", "SCaTipo": 0, "SCaNombre": "LA ESPERANZA SUR", "SHAPE_Length": 0.020514265070399711, "SHAPE_Area": 2.3142673528362707e-05, "CountHospedaje": 2 }, "geometry": { "type": "Point", "coordinates": [ -74.117122541005401, 4.657599207377846 ] } },
{ "type": "Feature", "properties": { "OBJECTID": 45, "SCaCodigo": "004524", "SCaTipo": 0, "SCaNombre": "SAN PABLO BOSA", "SHAPE_Length": 0.035871438061552012, "SHAPE_Area": 2.8823096401020509e-05, "CountHospedaje": 0 }, "geometry": { "type": "Point", "coordinates": [ -74.189833927277235, 4.604624794927208 ] } },
{ "type": "Feature", "properties": { "OBJECTID": 46, "SCaCodigo": "009215", "SCaTipo": 0, "SCaNombre": "CASABLANCA SUBA", "SHAPE_Length": 0.032059809744262348, "SHAPE_Area": 3.9616720339566182e-05, "CountHospedaje": 0 }, "geometry": { "type": "Point", "coordinates": [ -74.069120418771718, 4.752489476014806 ] } },
{ "type": "Feature", "properties": { "OBJECTID": 47, "SCaCodigo": "109102", "SCaTipo": 1, "SCaNombre": "SAN ANTONIO", "SHAPE_Length": 0.33832243008578566, "SHAPE_Area": 0.0026074202072261894, "CountHospedaje": 0 }, "geometry": { "type": "Point", "coordinates": [ -74.304143506995729, 4.095611249801363 ] } },
{ "type": "Feature", "properties": { "OBJECTID": 48, "SCaCodigo": "008405", "SCaTipo": 0, "SCaNombre": "GINEBRA", "SHAPE_Length": 0.015403909124869166, "SHAPE_Area": 1.2131630070937906e-05, "CountHospedaje": 0 }, "geometry": { "type": "Point", "coordinates": [ -74.026755807875375, 4.710346226887987 ] } },
{ "type": "Feature", "properties": { "OBJECTID": 49, "SCaCodigo": "002553", "SCaTipo": 0, "SCaNombre": "SUMAPAZ", "SHAPE_Length": 0.025362000517125886, "SHAPE_Area": 1.5285282953353558e-05, "CountHospedaje": 0 }, "geometry": { "type": "Point", "coordinates": [ -74.146814956205546, 4.554145681164125 ] } },
{ "type": "Feature", "properties": { "OBJECTID": 50, "SCaCodigo": "005204", "SCaTipo": 0, "SCaNombre": "SAN FERNANDO OCCIDENTAL", "SHAPE_Length": 0.025585047469333242, "SHAPE_Area": 2.8263738883341322e-05, "CountHospedaje": 0 }, "geometry": { "type": "Point", "coordinates": [ -74.081667080484976, 4.674437231247511 ] } },
{ "type": "Feature", "properties": { "OBJECTID": 51, "SCaCodigo": "007311", "SCaTipo": 0, "SCaNombre": "SIETE DE AGOSTO", "SHAPE_Length": 0.018033246963690186, "SHAPE_Area": 1.9883692387104898e-05, "CountHospedaje": 0 }, "geometry": { "type": "Point", "coordinates": [ -74.071145549943722, 4.657466485312704 ] } },
{ "type": "Feature", "properties": { "OBJECTID": 52, "SCaCodigo": "201306", "SCaTipo": 2, "SCaNombre": "TIBAQUE I", "SHAPE_Length": 0.0074283064916419849, "SHAPE_Area": 3.2635970382317876e-06, "CountHospedaje": 0 }, "geometry": { "type": "Point", "coordinates": [ -74.074870647425101, 4.559370525138573 ] } },
{ "type": "Feature", "properties": { "OBJECTID": 53, "SCaCodigo": "002617", "SCaTipo": 0, "SCaNombre": "EL REFUGIO I", "SHAPE_Length": 0.015330256807304184, "SHAPE_Area": 9.1309664355564251e-06, "CountHospedaje": 0 }, "geometry": { "type": "Point", "coordinates": [ -74.098186885635727, 4.488663464410024 ] } },
{ "type": "Feature", "properties": { "OBJECTID": 54, "SCaCodigo": "002605", "SCaTipo": 0, "SCaNombre": "BOLONIA", "SHAPE_Length": 0.025444324015847952, "SHAPE_Area": 1.1144514906733032e-05, "CountHospedaje": 0 }, "geometry": { "type": "Point", "coordinates": [ -74.100859188994178, 4.509386770238323 ] } },
{ "type": "Feature", "properties": { "OBJECTID": 55, "SCaCodigo": "008109", "SCaTipo": 0, "SCaNombre": "SAN MARTIN", "SHAPE_Length": 0.01467812400924063, "SHAPE_Area": 1.1291254658576023e-05, "CountHospedaje": 0 }, "geometry": { "type": "Point", "coordinates": [ -74.067391646245426, 4.617025196784546 ] } },
{ "type": "Feature", "properties": { "OBJECTID": 56, "SCaCodigo": "001401", "SCaTipo": 0, "SCaNombre": "SAN JOSE SUR", "SHAPE_Length": 0.025088918658952408, "SHAPE_Area": 3.4472399556015543e-05, "CountHospedaje": 0 }, "geometry": { "type": "Point", "coordinates": [ -74.101643332623851, 4.57780625675537 ] } },
{ "type": "Feature", "properties": { "OBJECTID": 57, "SCaCodigo": "006520", "SCaTipo": 0, "SCaNombre": "ZONA FRANCA", "SHAPE_Length": 0.04343826681588233, "SHAPE_Area": 6.4696912454116515e-05, "CountHospedaje": 0 }, "geometry": { "type": "Point", "coordinates": [ -74.158972788676621, 4.673096401040904 ] } },
{ "type": "Feature", "properties": { "OBJECTID": 58, "SCaCodigo": "003210", "SCaTipo": 0, "SCaNombre": "RAMIREZ", "SHAPE_Length": 0.02191353237253504, "SHAPE_Area": 2.237947145182206e-05, "CountHospedaje": 0 }, "geometry": { "type": "Point", "coordinates": [ -74.07612740059821, 4.582724892294617 ] } },
{ "type": "Feature", "properties": { "OBJECTID": 59, "SCaCodigo": "007401", "SCaTipo": 0, "SCaNombre": "POLO CLUB", "SHAPE_Length": 0.034352606341514519, "SHAPE_Area": 5.3145083065684607e-05, "CountHospedaje": 0 }, "geometry": { "type": "Point", "coordinates": [ -74.062213919003611, 4.672852743963549 ] } },
{ "type": "Feature", "properties": { "OBJECTID": 60, "SCaCodigo": "002619", "SCaTipo": 0, "SCaNombre": "VILLA ANITA", "SHAPE_Length": 0.021375213541490867, "SHAPE_Area": 1.1934422612589083e-05, "CountHospedaje": 0 }, "geometry": { "type": "Point", "coordinates": [ -74.11873431009306, 4.489253124509148 ] } },
{ "type": "Feature", "properties": { "OBJECTID": 61, "SCaCodigo": "009231", "SCaTipo": 0, "SCaNombre": "SUBA CERROS", "SHAPE_Length": 0.063457023945211952, "SHAPE_Area": 0.000105758164746648, "CountHospedaje": 0 }, "geometry": { "type": "Point", "coordinates": [ -74.076714143726917, 4.743257998838185 ] } },
{ "type": "Feature", "properties": { "OBJECTID": 62, "SCaCodigo": "002609", "SCaTipo": 0, "SCaNombre": "EL BOSQUE", "SHAPE_Length": 0.009313999381468676, "SHAPE_Area": 4.4739656141028017e-06, "CountHospedaje": 0 }, "geometry": { "type": "Point", "coordinates": [ -74.10137891850718, 4.505510403826928 ] } },
{ "type": "Feature", "properties": { "OBJECTID": 63, "SCaCodigo": "003211", "SCaTipo": 0, "SCaNombre": "GIRARDOT", "SHAPE_Length": 0.019423886247665782, "SHAPE_Area": 1.0616088910855152e-05, "CountHospedaje": 0 }, "geometry": { "type": "Point", "coordinates": [ -74.074435435452287, 4.586229725671317 ] } },
{ "type": "Feature", "properties": { "OBJECTID": 64, "SCaCodigo": "002204", "SCaTipo": 0, "SCaNombre": "QUIROGA SUR", "SHAPE_Length": 0.020059598726841991, "SHAPE_Area": 2.4541109589989004e-05, "CountHospedaje": 0 }, "geometry": { "type": "Point", "coordinates": [ -74.1203912267204, 4.578425161672712 ] } },
{ "type": "Feature", "properties": { "OBJECTID": 65, "SCaCodigo": "004552", "SCaTipo": 0, "SCaNombre": "GUALOCHE", "SHAPE_Length": 0.024593045238371625, "SHAPE_Area": 2.9928721974938467e-05, "CountHospedaje": 0 }, "geometry": { "type": "Point", "coordinates": [ -74.182637199137432, 4.600195953575349 ] } },
{ "type": "Feature", "properties": { "OBJECTID": 66, "SCaCodigo": "004583", "SCaTipo": 0, "SCaNombre": "ARGELIA II", "SHAPE_Length": 0.014986391136071071, "SHAPE_Area": 1.0064370164373914e-05, "CountHospedaje": 0 }, "geometry": { "type": "Point", "coordinates": [ -74.184464400693003, 4.614213927225369 ] } },
{ "type": "Feature", "properties": { "OBJECTID": 67, "SCaCodigo": "002420", "SCaTipo": 0, "SCaNombre": "LA CORUNA", "SHAPE_Length": 0.019417143303829945, "SHAPE_Area": 1.9776161333141011e-05, "CountHospedaje": 0 }, "geometry": { "type": "Point", "coordinates": [ -74.152513542641401, 4.578823510290672 ] } },
{ "type": "Feature", "properties": { "OBJECTID": 68, "SCaCodigo": "009258", "SCaTipo": 0, "SCaNombre": "CASA BLANCA SUBA I", "SHAPE_Length": 0.012042753399220504, "SHAPE_Area": 6.9734610881601812e-06, "CountHospedaje": 0 }, "geometry": { "type": "Point", "coordinates": [ -74.074995763649781, 4.738275412787252 ] } },
{ "type": "Feature", "properties": { "OBJECTID": 69, "SCaCodigo": "002508", "SCaTipo": 0, "SCaNombre": "TUNJUELITO", "SHAPE_Length": 0.024636019229354003, "SHAPE_Area": 3.498808062896238e-05, "CountHospedaje": 1 }, "geometry": { "type": "Point", "coordinates": [ -74.127932138434574, 4.561613948567429 ] } },
{ "type": "Feature", "properties": { "OBJECTID": 70, "SCaCodigo": "009260", "SCaTipo": 0, "SCaNombre": "ALTOS DE SUBA", "SHAPE_Length": 0.01105077276083362, "SHAPE_Area": 4.5389983796068426e-06, "CountHospedaje": 0 }, "geometry": { "type": "Point", "coordinates": [ -74.075745955262278, 4.733419963161032 ] } },
{ "type": "Feature", "properties": { "OBJECTID": 71, "SCaCodigo": "007107", "SCaTipo": 0, "SCaNombre": "LAS AMERICAS", "SHAPE_Length": 0.022231856392485611, "SHAPE_Area": 1.8880569794829882e-05, "CountHospedaje": 0 }, "geometry": { "type": "Point", "coordinates": [ -74.078852310625393, 4.627520513391622 ] } },
{ "type": "Feature", "properties": { "OBJECTID": 72, "SCaCodigo": "002563", "SCaTipo": 0, "SCaNombre": "EL PEDREGAL", "SHAPE_Length": 0.02033271803621152, "SHAPE_Area": 1.2549760269158899e-05, "CountHospedaje": 0 }, "geometry": { "type": "Point", "coordinates": [ -74.11379965690962, 4.522368903631893 ] } },
{ "type": "Feature", "properties": { "OBJECTID": 73, "SCaCodigo": "008313", "SCaTipo": 0, "SCaNombre": "LAGO GAITAN", "SHAPE_Length": 0.019886104071391218, "SHAPE_Area": 2.139471412218915e-05, "CountHospedaje": 0 }, "geometry": { "type": "Point", "coordinates": [ -74.058756969855537, 4.666016224395555 ] } },
{ "type": "Feature", "properties": { "OBJECTID": 74, "SCaCodigo": "001113", "SCaTipo": 0, "SCaNombre": "SAN BLAS II", "SHAPE_Length": 0.042035489033109427, "SHAPE_Area": 3.0883682396899291e-05, "CountHospedaje": 0 }, "geometry": { "type": "Point", "coordinates": [ -74.079547620481165, 4.562564521330295 ] } },
{ "type": "Feature", "properties": { "OBJECTID": 75, "SCaCodigo": "008424", "SCaTipo": 0, "SCaNombre": "SEGUNDO CONTADOR", "SHAPE_Length": 0.01662723039618651, "SHAPE_Area": 1.4495206332300598e-05, "CountHospedaje": 0 }, "geometry": { "type": "Point", "coordinates": [ -74.026678819833833, 4.713122118161897 ] } },
{ "type": "Feature", "properties": { "OBJECTID": 76, "SCaCodigo": "001325", "SCaTipo": 0, "SCaNombre": "JUAN REY (LA PAZ)", "SHAPE_Length": 0.041702115951342225, "SHAPE_Area": 4.2171991445637279e-05, "CountHospedaje": 0 }, "geometry": { "type": "Point", "coordinates": [ -74.089851034234897, 4.524885566858416 ] } },
{ "type": "Feature", "properties": { "OBJECTID": 77, "SCaCodigo": "008509", "SCaTipo": 0, "SCaNombre": "LOS CEDROS ORIENTAL", "SHAPE_Length": 0.016382636638214133, "SHAPE_Area": 9.6688082161166786e-06, "CountHospedaje": 0 }, "geometry": { "type": "Point", "coordinates": [ -74.029257447059081, 4.723299083253048 ] } },
{ "type": "Feature", "properties": { "OBJECTID": 78, "SCaCodigo": "002572", "SCaTipo": 0, "SCaNombre": "SALAZAR USME", "SHAPE_Length": 0.0069790048004047681, "SHAPE_Area": 1.6846661302057281e-06, "CountHospedaje": 0 }, "geometry": { "type": "Point", "coordinates": [ -74.113817286523627, 4.518387940245002 ] } },
{ "type": "Feature", "properties": { "OBJECTID": 79, "SCaCodigo": "002539", "SCaTipo": 0, "SCaNombre": "SAN RAFAEL", "SHAPE_Length": 0.029617024959564107, "SHAPE_Area": 2.7671254459293405e-05, "CountHospedaje": 0 }, "geometry": { "type": "Point", "coordinates": [ -74.149526315745405, 4.547793582394214 ] } },
{ "type": "Feature", "properties": { "OBJECTID": 80, "SCaCodigo": "002598", "SCaTipo": 0, "SCaNombre": "EL MOCHUELO II URBANO", "SHAPE_Length": 0.08012160469018359, "SHAPE_Area": 0.00018229407521238252, "CountHospedaje": 0 }, "geometry": { "type": "Point", "coordinates": [ -74.130102084015618, 4.525412033746819 ] } },
{ "type": "Feature", "properties": { "OBJECTID": 81, "SCaCodigo": "005508", "SCaTipo": 0, "SCaNombre": "LA CABANA", "SHAPE_Length": 0.017697599544507399, "SHAPE_Area": 1.9392861925812099e-05, "CountHospedaje": 0 }, "geometry": { "type": "Point", "coordinates": [ -74.101503042176844, 4.673825612622657 ] } },
{ "type": "Feature", "properties": { "OBJECTID": 82, "SCaCodigo": "002502", "SCaTipo": 0, "SCaNombre": "MILLAN", "SHAPE_Length": 0.015991970574963758, "SHAPE_Area": 1.0295107486483859e-05, "CountHospedaje": 0 }, "geometry": { "type": "Point", "coordinates": [ -74.146134213229416, 4.559606489242145 ] } },
{ "type": "Feature", "properties": { "OBJECTID": 83, "SCaCodigo": "008547", "SCaTipo": 0, "SCaNombre": "LA ESTRELLITA III", "SHAPE_Length": 0.0024566853133142926, "SHAPE_Area": 2.3247433240654768e-07, "CountHospedaje": 0 }, "geometry": { "type": "Point", "coordinates": [ -74.02278370516936, 4.759739611429962 ] } },
{ "type": "Feature", "properties": { "OBJECTID": 84, "SCaCodigo": "105314", "SCaTipo": 1, "SCaNombre": "EL CORZO RURAL", "SHAPE_Length": 0.034321345454924698, "SHAPE_Area": 3.2632166721662492e-05, "CountHospedaje": 0 }, "geometry": { "type": "Point", "coordinates": [ -74.197928640123692, 4.647656216991324 ] } },
{ "type": "Feature", "properties": { "OBJECTID": 85, "SCaCodigo": "002456", "SCaTipo": 0, "SCaNombre": "QUIBA I", "SHAPE_Length": 0.02176159372533126, "SHAPE_Area": 1.6432509016251757e-05, "CountHospedaje": 0 }, "geometry": { "type": "Point", "coordinates": [ -74.140532001934289, 4.541521239813262 ] } },
{ "type": "Feature", "properties": { "OBJECTID": 86, "SCaCodigo": "004560", "SCaTipo": 0, "SCaNombre": "SAUCEDAL", "SHAPE_Length": 0.0061346571453145121, "SHAPE_Area": 1.9009592170007412e-06, "CountHospedaje": 0 }, "geometry": { "type": "Point", "coordinates": [ -74.161834807105848, 4.635045459154846 ] } },
{ "type": "Feature", "properties": { "OBJECTID": 87, "SCaCodigo": "001307", "SCaTipo": 0, "SCaNombre": "RAMAJAL", "SHAPE_Length": 0.019296128440045742, "SHAPE_Area": 1.1312467436986126e-05, "CountHospedaje": 0 }, "geometry": { "type": "Point", "coordinates": [ -74.082098327849522, 4.559759738650033 ] } },
{ "type": "Feature", "properties": { "OBJECTID": 88, "SCaCodigo": "001355", "SCaTipo": 0, "SCaNombre": "LAS GUACAMAYAS I", "SHAPE_Length": 0.020730723728055952, "SHAPE_Area": 1.8742605781853955e-05, "CountHospedaje": 1 }, "geometry": { "type": "Point", "coordinates": [ -74.095965499213946, 4.55431383904331 ] } },
{ "type": "Feature", "properties": { "OBJECTID": 89, "SCaCodigo": "008536", "SCaTipo": 0, "SCaNombre": "BOSQUE DE PINOS I", "SHAPE_Length": 0.035906616851637707, "SHAPE_Area": 4.1696301830249788e-05, "CountHospedaje": 0 }, "geometry": { "type": "Point", "coordinates": [ -74.025291410484584, 4.718190466675977 ] } },
{ "type": "Feature", "properties": { "OBJECTID": 90, "SCaCodigo": "008523", "SCaTipo": 0, "SCaNombre": "SAN ANTONIO NORTE", "SHAPE_Length": 0.017609547811977985, "SHAPE_Area": 1.6042489521448896e-05, "CountHospedaje": 0 }, "geometry": { "type": "Point", "coordinates": [ -74.028165453752763, 4.757493295496541 ] } },
{ "type": "Feature", "properties": { "OBJECTID": 91, "SCaCodigo": "006532", "SCaTipo": 0, "SCaNombre": "KASANDRA", "SHAPE_Length": 0.0093119939563972628, "SHAPE_Area": 4.8208071411613209e-06, "CountHospedaje": 0 }, "geometry": { "type": "Point", "coordinates": [ -74.169663917511755, 4.693192384930887 ] } },
{ "type": "Feature", "properties": { "OBJECTID": 92, "SCaCodigo": "001311", "SCaTipo": 0, "SCaNombre": "LA GLORIA OCCIDENTAL", "SHAPE_Length": 0.022433580848353708, "SHAPE_Area": 1.6205766233611253e-05, "CountHospedaje": 0 }, "geometry": { "type": "Point", "coordinates": [ -74.096551704392553, 4.548065640382279 ] } },
{ "type": "Feature", "properties": { "OBJECTID": 93, "SCaCodigo": "004105", "SCaTipo": 0, "SCaNombre": "EDUARDO SANTOS", "SHAPE_Length": 0.026287860372925985, "SHAPE_Area": 3.6258208940849503e-05, "CountHospedaje": 0 }, "geometry": { "type": "Point", "coordinates": [ -74.090169205510222, 4.595046501724077 ] } },
{ "type": "Feature", "properties": { "OBJECTID": 94, "SCaCodigo": "009241", "SCaTipo": 0, "SCaNombre": "BOSQUES DE SAN JORGE", "SHAPE_Length": 0.024551143964775594, "SHAPE_Area": 1.7488736622929841e-05, "CountHospedaje": 0 }, "geometry": { "type": "Point", "coordinates": [ -74.086694171700302, 4.746787836659909 ] } },
{ "type": "Feature", "properties": { "OBJECTID": 95, "SCaCodigo": "001405", "SCaTipo": 0, "SCaNombre": "VEINTE DE JULIO", "SHAPE_Length": 0.028371968277197023, "SHAPE_Area": 4.1730395808515468e-05, "CountHospedaje": 0 }, "geometry": { "type": "Point", "coordinates": [ -74.096233050219311, 4.570554527323455 ] } },
{ "type": "Feature", "properties": { "OBJECTID": 96, "SCaCodigo": "006528", "SCaTipo": 0, "SCaNombre": "EL VERGEL", "SHAPE_Length": 0.020250920145903472, "SHAPE_Area": 1.8552112587111297e-05, "CountHospedaje": 0 }, "geometry": { "type": "Point", "coordinates": [ -74.135439155508394, 4.656122886242323 ] } },
{ "type": "Feature", "properties": { "OBJECTID": 97, "SCaCodigo": "006210", "SCaTipo": 0, "SCaNombre": "CENTRO NARINO", "SHAPE_Length": 0.021569301922283849, "SHAPE_Area": 2.5367925893996011e-05, "CountHospedaje": 0 }, "geometry": { "type": "Point", "coordinates": [ -74.089528736760769, 4.62850622087262 ] } },
{ "type": "Feature", "properties": { "OBJECTID": 98, "SCaCodigo": "005107", "SCaTipo": 0, "SCaNombre": "ACEVEDO TEJADA", "SHAPE_Length": 0.017836506828225327, "SHAPE_Area": 1.512055804250748e-05, "CountHospedaje": 0 }, "geometry": { "type": "Point", "coordinates": [ -74.081465284033598, 4.63069109953241 ] } },
{ "type": "Feature", "properties": { "OBJECTID": 99, "SCaCodigo": "007207", "SCaTipo": 0, "SCaNombre": "GALERIAS", "SHAPE_Length": 0.018290090995904826, "SHAPE_Area": 1.7486068204423996e-05, "CountHospedaje": 0 }, "geometry": { "type": "Point", "coordinates": [ -74.074934261613024, 4.642595074339331 ] } },
{ "type": "Feature", "properties": { "OBJECTID": 100, "SCaCodigo": "109111", "SCaTipo": 1, "SCaNombre": "SAN JOSE", "SHAPE_Length": 0.61258688027505115, "SHAPE_Area": 0.0086342752772141894, "CountHospedaje": 0 }, "geometry": { "type": "Point", "coordinates": [ -74.373222324034529, 3.809720128262961 ] } },
{ "type": "Feature", "properties": { "OBJECTID": 101, "SCaCodigo": "109116", "SCaTipo": 1, "SCaNombre": "NUEVA GRANADA", "SHAPE_Length": 0.25148223961851301, "SHAPE_Area": 0.0020440923112689208, "CountHospedaje": 0 }, "geometry": { "type": "Point", "coordinates": [ -74.347557682078786, 3.882041343587363 ] } },
{ "type": "Feature", "properties": { "OBJECTID": 102, "SCaCodigo": "109110", "SCaTipo": 1, "SCaNombre": "CONCEPCION", "SHAPE_Length": 0.20856439550820183, "SHAPE_Area": 0.0014477290206583182, "CountHospedaje": 0 }, "geometry": { "type": "Point", "coordinates": [ -74.341898713468638, 3.919775098646377 ] } },
{ "type": "Feature", "properties": { "OBJECTID": 103, "SCaCodigo": "004576", "SCaTipo": 0, "SCaNombre": "CASA BLANCA SUR", "SHAPE_Length": 0.023590221020213506, "SHAPE_Area": 2.2244542373831722e-05, "CountHospedaje": 0 }, "geometry": { "type": "Point", "coordinates": [ -74.1716869311241, 4.618205689563633 ] } },
{ "type": "Feature", "properties": { "OBJECTID": 104, "SCaCodigo": "004633", "SCaTipo": 0, "SCaNombre": "SANTA FE BOSA", "SHAPE_Length": 0.018921110617839312, "SHAPE_Area": 2.0561630364692761e-05, "CountHospedaje": 0 }, "geometry": { "type": "Point", "coordinates": [ -74.194189459437567, 4.637005046477283 ] } },
{ "type": "Feature", "properties": { "OBJECTID": 105, "SCaCodigo": "102909", "SCaTipo": 1, "SCaNombre": "SAN BENITO", "SHAPE_Length": 0.21423130275899541, "SHAPE_Area": 0.001091929355554731, "CountHospedaje": 0 }, "geometry": { "type": "Point", "coordinates": [ -74.11602218931688, 4.36130865883077 ] } },
{ "type": "Feature", "properties": { "OBJECTID": 106, "SCaCodigo": "005649", "SCaTipo": 0, "SCaNombre": "VILLAS DE GRANADA I", "SHAPE_Length": 0.022124181798662896, "SHAPE_Area": 2.9329813965130279e-05, "CountHospedaje": 1 }, "geometry": { "type": "Point", "coordinates": [ -74.121418020758256, 4.717807376542775 ] } },
{ "type": "Feature", "properties": { "OBJECTID": 107, "SCaCodigo": "004548", "SCaTipo": 0, "SCaNombre": "TECHO", "SHAPE_Length": 0.015291292138095502, "SHAPE_Area": 1.3717149058756104e-05, "CountHospedaje": 0 }, "geometry": { "type": "Point", "coordinates": [ -74.147430687480693, 4.626890576267058 ] } },
{ "type": "Feature", "properties": { "OBJECTID": 108, "SCaCodigo": "007309", "SCaTipo": 0, "SCaNombre": "BENJAMIN HERRERA", "SHAPE_Length": 0.015509511625714626, "SHAPE_Area": 1.4413833138117751e-05, "CountHospedaje": 0 }, "geometry": { "type": "Point", "coordinates": [ -74.076371794151171, 4.654139736195984 ] } },
{ "type": "Feature", "properties": { "OBJECTID": 109, "SCaCodigo": "002551", "SCaTipo": 0, "SCaNombre": "ALASKA", "SHAPE_Length": 0.013130529915408829, "SHAPE_Area": 4.5082839587139617e-06, "CountHospedaje": 0 }, "geometry": { "type": "Point", "coordinates": [ -74.111247928145289, 4.529910679314314 ] } },
{ "type": "Feature", "properties": { "OBJECTID": 110, "SCaCodigo": "004562", "SCaTipo": 0, "SCaNombre": "LLANO GRANDE", "SHAPE_Length": 0.012956328056940825, "SHAPE_Area": 8.157919121151184e-06, "CountHospedaje": 0 }, "geometry": { "type": "Point", "coordinates": [ -74.16345016267914, 4.632821262131995 ] } },
{ "type": "Feature", "properties": { "OBJECTID": 111, "SCaCodigo": "103108", "SCaTipo": 1, "SCaNombre": "LOS RIOS", "SHAPE_Length": 0.54564755859560665, "SHAPE_Area": 0.0071964203857807565, "CountHospedaje": 0 }, "geometry": { "type": "Point", "coordinates": [ -74.148196461664469, 4.090122779051144 ] } },
{ "type": "Feature", "properties": { "OBJECTID": 112, "SCaCodigo": "002522", "SCaTipo": 0, "SCaNombre": "EL MOCHUELO ORIENTAL", "SHAPE_Length": 0.081894680475140869, "SHAPE_Area": 0.00016473832675560431, "CountHospedaje": 0 }, "geometry": { "type": "Point", "coordinates": [ -74.125179659229332, 4.53510123995299 ] } },
{ "type": "Feature", "properties": { "OBJECTID": 113, "SCaCodigo": "008112", "SCaTipo": 0, "SCaNombre": "SUCRE", "SHAPE_Length": 0.017522547535944552, "SHAPE_Area": 1.6578110000891848e-05, "CountHospedaje": 0 }, "geometry": { "type": "Point", "coordinates": [ -74.066423053678761, 4.629624985073638 ] } },
{ "type": "Feature", "properties": { "OBJECTID": 114, "SCaCodigo": "005116", "SCaTipo": 0, "SCaNombre": "PABLO VI NORTE", "SHAPE_Length": 0.026020241503500886, "SHAPE_Area": 2.4555295371619857e-05, "CountHospedaje": 0 }, "geometry": { "type": "Point", "coordinates": [ -74.0875240006675, 4.654982455893292 ] } },
{ "type": "Feature", "properties": { "OBJECTID": 115, "SCaCodigo": "003201", "SCaTipo": 0, "SCaNombre": "SAN BERNARDINO", "SHAPE_Length": 0.022987714899964748, "SHAPE_Area": 3.0323834186992581e-05, "CountHospedaje": 0 }, "geometry": { "type": "Point", "coordinates": [ -74.084890900688649, 4.593128466506579 ] } },
{ "type": "Feature", "properties": { "OBJECTID": 116, "SCaCodigo": "001413", "SCaTipo": 0, "SCaNombre": "LA RESURRECCION", "SHAPE_Length": 0.022809578944733878, "SHAPE_Area": 1.6258396576014404e-05, "CountHospedaje": 0 }, "geometry": { "type": "Point", "coordinates": [ -74.111470455819557, 4.566830726556003 ] } },
{ "type": "Feature", "properties": { "OBJECTID": 117, "SCaCodigo": "009250", "SCaTipo": 0, "SCaNombre": "TIBABUYES OCCIDENTAL", "SHAPE_Length": 0.020464138730594196, "SHAPE_Area": 1.7759014271360959e-05, "CountHospedaje": 1 }, "geometry": { "type": "Point", "coordinates": [ -74.121565568221556, 4.751992636599637 ] } },
{ "type": "Feature", "properties": { "OBJECTID": 118, "SCaCodigo": "006516", "SCaTipo": 0, "SCaNombre": "TINTALA", "SHAPE_Length": 0.049258325194145483, "SHAPE_Area": 0.00013438200297177856, "CountHospedaje": 0 }, "geometry": { "type": "Point", "coordinates": [ -74.155595727643956, 4.648527107144917 ] } },
{ "type": "Feature", "properties": { "OBJECTID": 119, "SCaCodigo": "002503", "SCaTipo": 0, "SCaNombre": "LA AURORA", "SHAPE_Length": 0.032657386134733617, "SHAPE_Area": 2.5973812137967811e-05, "CountHospedaje": 0 }, "geometry": { "type": "Point", "coordinates": [ -74.121020687750814, 4.522343506010746 ] } },
{ "type": "Feature", "properties": { "OBJECTID": 120, "SCaCodigo": "002554", "SCaTipo": 0, "SCaNombre": "GIBRALTAR SUR", "SHAPE_Length": 0.022549354396272776, "SHAPE_Area": 1.6440319025379175e-05, "CountHospedaje": 1 }, "geometry": { "type": "Point", "coordinates": [ -74.142475293723763, 4.55534281091702 ] } },
{ "type": "Feature", "properties": { "OBJECTID": 121, "SCaCodigo": "102405", "SCaTipo": 1, "SCaNombre": "PEPINITOS", "SHAPE_Length": 0.023818001079943821, "SHAPE_Area": 2.3910258525239129e-05, "CountHospedaje": 0 }, "geometry": { "type": "Point", "coordinates": [ -74.094389039599108, 4.498058765326075 ] } },
{ "type": "Feature", "properties": { "OBJECTID": 122, "SCaCodigo": "009116", "SCaTipo": 0, "SCaNombre": "PRADO VERANIEGO NORTE", "SHAPE_Length": 0.04726381002667359, "SHAPE_Area": 6.2509449058513255e-05, "CountHospedaje": 0 }, "geometry": { "type": "Point", "coordinates": [ -74.062724268165354, 4.719623369650106 ] } },
{ "type": "Feature", "properties": { "OBJECTID": 123, "SCaCodigo": "001205", "SCaTipo": 0, "SCaNombre": "SOCIEGO", "SHAPE_Length": 0.022256008714092911, "SHAPE_Area": 2.5741234517033722e-05, "CountHospedaje": 0 }, "geometry": { "type": "Point", "coordinates": [ -74.091354556666261, 4.576676613667275 ] } },
{ "type": "Feature", "properties": { "OBJECTID": 124, "SCaCodigo": "001322", "SCaTipo": 0, "SCaNombre": "SAN RAFAEL USME", "SHAPE_Length": 0.019687449258061956, "SHAPE_Area": 1.7305345703757194e-05, "CountHospedaje": 0 }, "geometry": { "type": "Point", "coordinates": [ -74.083856249511811, 4.529578074132105 ] } },
{ "type": "Feature", "properties": { "OBJECTID": 125, "SCaCodigo": "005637", "SCaTipo": 0, "SCaNombre": "VILLA GLADYS", "SHAPE_Length": 0.025516675728372983, "SHAPE_Area": 2.580450385916882e-05, "CountHospedaje": 0 }, "geometry": { "type": "Point", "coordinates": [ -74.137382061040299, 4.707588187038587 ] } },
{ "type": "Feature", "properties": { "OBJECTID": 126, "SCaCodigo": "003106", "SCaTipo": 0, "SCaNombre": "CENTRO ADMINISTRATIVO", "SHAPE_Length": 0.028366178375952542, "SHAPE_Area": 3.3720368565668818e-05, "CountHospedaje": 0 }, "geometry": { "type": "Point", "coordinates": [ -74.076575077303403, 4.596222665147955 ] } },
{ "type": "Feature", "properties": { "OBJECTID": 127, "SCaCodigo": "008301", "SCaTipo": 0, "SCaNombre": "CHICO NORTE II SECTOR", "SHAPE_Length": 0.03063163007500742, "SHAPE_Area": 4.6219060377155565e-05, "CountHospedaje": 0 }, "geometry": { "type": "Point", "coordinates": [ -74.044130248210962, 4.680519266450592 ] } },
{ "type": "Feature", "properties": { "OBJECTID": 128, "SCaCodigo": "105210", "SCaTipo": 1, "SCaNombre": "OSORIO X", "SHAPE_Length": 0.0107732448332286, "SHAPE_Area": 5.641079168932108e-06, "CountHospedaje": 0 }, "geometry": { "type": "Point", "coordinates": [ -74.186058735273775, 4.645612002157897 ] } },
{ "type": "Feature", "properties": { "OBJECTID": 129, "SCaCodigo": "008102", "SCaTipo": 0, "SCaNombre": "PARQUE NACIONAL", "SHAPE_Length": 0.037772835964030527, "SHAPE_Area": 4.3591740082932434e-05, "CountHospedaje": 0 }, "geometry": { "type": "Point", "coordinates": [ -74.062377166804168, 4.622609599181915 ] } },
{ "type": "Feature", "properties": { "OBJECTID": 130, "SCaCodigo": "006205", "SCaTipo": 0, "SCaNombre": "INDUSTRIAL CENTENARIO", "SHAPE_Length": 0.030069907849048092, "SHAPE_Area": 2.8214365307552255e-05, "CountHospedaje": 0 }, "geometry": { "type": "Point", "coordinates": [ -74.095998092842223, 4.624360898068682 ] } },
{ "type": "Feature", "properties": { "OBJECTID": 131, "SCaCodigo": "001334", "SCaTipo": 0, "SCaNombre": "LAS GAVIOTAS", "SHAPE_Length": 0.018529986342699742, "SHAPE_Area": 1.5922761729763502e-05, "CountHospedaje": 0 }, "geometry": { "type": "Point", "coordinates": [ -74.08283448711336, 4.53248617792016 ] } },
{ "type": "Feature", "properties": { "OBJECTID": 132, "SCaCodigo": "009130", "SCaTipo": 0, "SCaNombre": "CANODROMO", "SHAPE_Length": 0.028463309112971839, "SHAPE_Area": 4.2679664196703919e-05, "CountHospedaje": 0 }, "geometry": { "type": "Point", "coordinates": [ -74.056329404636514, 4.710867207911878 ] } },
{ "type": "Feature", "properties": { "OBJECTID": 133, "SCaCodigo": "004316", "SCaTipo": 0, "SCaNombre": "LAS MARGARITAS", "SHAPE_Length": 0.038334752796415843, "SHAPE_Area": 6.8762937646612849e-05, "CountHospedaje": 0 }, "geometry": { "type": "Point", "coordinates": [ -74.175643726450929, 4.631613454702741 ] } },
{ "type": "Feature", "properties": { "OBJECTID": 134, "SCaCodigo": "004612", "SCaTipo": 0, "SCaNombre": "DINDALITO", "SHAPE_Length": 0.021674998626143128, "SHAPE_Area": 2.2429997596868365e-05, "CountHospedaje": 0 }, "geometry": { "type": "Point", "coordinates": [ -74.175312064611376, 4.640474433186623 ] } },
{ "type": "Feature", "properties": { "OBJECTID": 135, "SCaCodigo": "003212", "SCaTipo": 0, "SCaNombre": "LOURDES", "SHAPE_Length": 0.019445125097078061, "SHAPE_Area": 1.5236493258363294e-05, "CountHospedaje": 2 }, "geometry": { "type": "Point", "coordinates": [ -74.073629424394937, 4.588523167390693 ] } },
{ "type": "Feature", "properties": { "OBJECTID": 136, "SCaCodigo": "002552", "SCaTipo": 0, "SCaNombre": "JUAN PABLO II", "SHAPE_Length": 0.025284828332433885, "SHAPE_Area": 2.2912545394210429e-05, "CountHospedaje": 0 }, "geometry": { "type": "Point", "coordinates": [ -74.149969013469658, 4.554143207290697 ] } },
{ "type": "Feature", "properties": { "OBJECTID": 137, "SCaCodigo": "008502", "SCaTipo": 0, "SCaNombre": "LA PRADERA NORTE", "SHAPE_Length": 0.032553225090612453, "SHAPE_Area": 5.2820649440737935e-05, "CountHospedaje": 0 }, "geometry": { "type": "Point", "coordinates": [ -74.034471738062607, 4.743913362498943 ] } },
{ "type": "Feature", "properties": { "OBJECTID": 138, "SCaCodigo": "007202", "SCaTipo": 0, "SCaNombre": "SAN LUIS", "SHAPE_Length": 0.027609125175027071, "SHAPE_Area": 3.892751375792861e-05, "CountHospedaje": 0 }, "geometry": { "type": "Point", "coordinates": [ -74.071350809609925, 4.647003713811216 ] } },
{ "type": "Feature", "properties": { "OBJECTID": 139, "SCaCodigo": "004551", "SCaTipo": 0, "SCaNombre": "HIPOTECHO SUR", "SHAPE_Length": 0.03598193732922314, "SHAPE_Area": 4.4824109916849483e-05, "CountHospedaje": 1 }, "geometry": { "type": "Point", "coordinates": [ -74.126616030737182, 4.623473484184252 ] } },
{ "type": "Feature", "properties": { "OBJECTID": 140, "SCaCodigo": "205101", "SCaTipo": 2, "SCaNombre": "VEREDA EL TINTAL URBANO", "SHAPE_Length": 0.043963508420442207, "SHAPE_Area": 4.3727590693301635e-05, "CountHospedaje": 0 }, "geometry": { "type": "Point", "coordinates": [ -74.149118043456312, 4.65410525014115 ] } },
{ "type": "Feature", "properties": { "OBJECTID": 141, "SCaCodigo": "102116", "SCaTipo": 1, "SCaNombre": "CHISACA", "SHAPE_Length": 0.27917315800472525, "SHAPE_Area": 0.0023367897900494648, "CountHospedaje": 0 }, "geometry": { "type": "Point", "coordinates": [ -74.205029245235821, 4.320068348050891 ] } },
{ "type": "Feature", "properties": { "OBJECTID": 142, "SCaCodigo": "005622", "SCaTipo": 0, "SCaNombre": "BOLIVIA", "SHAPE_Length": 0.024353184973074742, "SHAPE_Area": 2.4921185394376958e-05, "CountHospedaje": 0 }, "geometry": { "type": "Point", "coordinates": [ -74.114505571437121, 4.717687936132129 ] } },
{ "type": "Feature", "properties": { "OBJECTID": 143, "SCaCodigo": "002566", "SCaTipo": 0, "SCaNombre": "LA PAZ", "SHAPE_Length": 0.026095860203739284, "SHAPE_Area": 1.9330412756960843e-05, "CountHospedaje": 0 }, "geometry": { "type": "Point", "coordinates": [ -74.114747301711773, 4.542088852032564 ] } },
{ "type": "Feature", "properties": { "OBJECTID": 144, "SCaCodigo": "002549", "SCaTipo": 0, "SCaNombre": "VILLA GLORIA", "SHAPE_Length": 0.026028508178952678, "SHAPE_Area": 1.5532392627269001e-05, "CountHospedaje": 0 }, "geometry": { "type": "Point", "coordinates": [ -74.152364221476887, 4.549734872084633 ] } },
{ "type": "Feature", "properties": { "OBJECTID": 145, "SCaCodigo": "005664", "SCaTipo": 0, "SCaNombre": "EL DORADO", "SHAPE_Length": 0.054585190247001716, "SHAPE_Area": 0.00010961727972034972, "CountHospedaje": 0 }, "geometry": { "type": "Point", "coordinates": [ -74.122532830258095, 4.735033202805422 ] } },
{ "type": "Feature", "properties": { "OBJECTID": 146, "SCaCodigo": "007205", "SCaTipo": 0, "SCaNombre": "PALERMO", "SHAPE_Length": 0.024980145328591104, "SHAPE_Area": 2.9186304314835394e-05, "CountHospedaje": 0 }, "geometry": { "type": "Point", "coordinates": [ -74.071917050840696, 4.63502090987759 ] } },
{ "type": "Feature", "properties": { "OBJECTID": 147, "SCaCodigo": "007308", "SCaTipo": 0, "SCaNombre": "QUINTA MUTIS", "SHAPE_Length": 0.015236284621609466, "SHAPE_Area": 1.2934972858509794e-05, "CountHospedaje": 0 }, "geometry": { "type": "Point", "coordinates": [ -74.073459490126524, 4.653425893691737 ] } },
{ "type": "Feature", "properties": { "OBJECTID": 148, "SCaCodigo": "006518", "SCaTipo": 0, "SCaNombre": "OSORIO III", "SHAPE_Length": 0.035623310390441983, "SHAPE_Area": 5.0895485036491738e-05, "CountHospedaje": 1 }, "geometry": { "type": "Point", "coordinates": [ -74.16619619538541, 4.648597162234544 ] } },
{ "type": "Feature", "properties": { "OBJECTID": 149, "SCaCodigo": "205102", "SCaTipo": 2, "SCaNombre": "VEREDA EL TINTAL", "SHAPE_Length": 0.01429014922463384, "SHAPE_Area": 8.1344128474064404e-06, "CountHospedaje": 0 }, "geometry": { "type": "Point", "coordinates": [ -74.138164582513582, 4.660643723860526 ] } },
{ "type": "Feature", "properties": { "OBJECTID": 150, "SCaCodigo": "004584", "SCaTipo": 0, "SCaNombre": "SANTA CATALINA", "SHAPE_Length": 0.02451333489080432, "SHAPE_Area": 2.333525099552401e-05, "CountHospedaje": 0 }, "geometry": { "type": "Point", "coordinates": [ -74.152380835865259, 4.605409112426092 ] } },
{ "type": "Feature", "properties": { "OBJECTID": 151, "SCaCodigo": "001412", "SCaTipo": 0, "SCaNombre": "GRANJAS SAN PABLO", "SHAPE_Length": 0.029734653444241116, "SHAPE_Area": 3.7561424758821616e-05, "CountHospedaje": 0 }, "geometry": { "type": "Point", "coordinates": [ -74.116849177094721, 4.573065423471668 ] } },
{ "type": "Feature", "properties": { "OBJECTID": 152, "SCaCodigo": "008114", "SCaTipo": 0, "SCaNombre": "PARQUE NACIONAL URBANO", "SHAPE_Length": 0.0059151655597915369, "SHAPE_Area": 2.1303012177287946e-06, "CountHospedaje": 0 }, "geometry": { "type": "Point", "coordinates": [ -74.063050334904389, 4.600271124997349 ] } },
{ "type": "Feature", "properties": { "OBJECTID": 153, "SCaCodigo": "006308", "SCaTipo": 0, "SCaNombre": "FRANCO", "SHAPE_Length": 0.038557609858948814, "SHAPE_Area": 5.8689906261067045e-05, "CountHospedaje": 0 }, "geometry": { "type": "Point", "coordinates": [ -74.121242358272809, 4.650422188612191 ] } },
{ "type": "Feature", "properties": { "OBJECTID": 154, "SCaCodigo": "004586", "SCaTipo": 0, "SCaNombre": "JIMENEZ DE QUESADA II SECTOR", "SHAPE_Length": 0.0240116783909822, "SHAPE_Area": 2.1696302279378994e-05, "CountHospedaje": 0 }, "geometry": { "type": "Point", "coordinates": [ -74.18844569790771, 4.607728257765321 ] } },
{ "type": "Feature", "properties": { "OBJECTID": 155, "SCaCodigo": "002631", "SCaTipo": 0, "SCaNombre": "EL NEVADO", "SHAPE_Length": 0.029754420600226924, "SHAPE_Area": 2.6919524509108317e-05, "CountHospedaje": 0 }, "geometry": { "type": "Point", "coordinates": [ -74.111404594177699, 4.52737328597842 ] } },
{ "type": "Feature", "properties": { "OBJECTID": 156, "SCaCodigo": "007105", "SCaTipo": 0, "SCaNombre": "ARMENIA", "SHAPE_Length": 0.015633824021154989, "SHAPE_Area": 1.4366978900783432e-05, "CountHospedaje": 0 }, "geometry": { "type": "Point", "coordinates": [ -74.072738839781422, 4.618718158128353 ] } },
{ "type": "Feature", "properties": { "OBJECTID": 157, "SCaCodigo": "006207", "SCaTipo": 0, "SCaNombre": "BATALLON CALDAS", "SHAPE_Length": 0.020910704072986744, "SHAPE_Area": 2.2867860067667177e-05, "CountHospedaje": 0 }, "geometry": { "type": "Point", "coordinates": [ -74.103057243214366, 4.629943121266207 ] } },
{ "type": "Feature", "properties": { "OBJECTID": 158, "SCaCodigo": "009138", "SCaTipo": 0, "SCaNombre": "CASABLANCA SUBA URBANO I", "SHAPE_Length": 0.010212142125646721, "SHAPE_Area": 5.2347873722722404e-06, "CountHospedaje": 0 }, "geometry": { "type": "Point", "coordinates": [ -74.052725957975099, 4.781855011252254 ] } },
{ "type": "Feature", "properties": { "OBJECTID": 159, "SCaCodigo": "004106", "SCaTipo": 0, "SCaNombre": "EL VERGEL", "SHAPE_Length": 0.01911616628460568, "SHAPE_Area": 1.9696777761978735e-05, "CountHospedaje": 0 }, "geometry": { "type": "Point", "coordinates": [ -74.095640537747656, 4.596665866638358 ] } },
{ "type": "Feature", "properties": { "OBJECTID": 160, "SCaCodigo": "009105", "SCaTipo": 0, "SCaNombre": "PRADO PINZON", "SHAPE_Length": 0.029830459869445939, "SHAPE_Area": 4.5428122173921966e-05, "CountHospedaje": 1 }, "geometry": { "type": "Point", "coordinates": [ -74.05445508725974, 4.72738358141545 ] } },
{ "type": "Feature", "properties": { "OBJECTID": 161, "SCaCodigo": "007304", "SCaTipo": 0, "SCaNombre": "CONCEPCION NORTE", "SHAPE_Length": 0.014095750951892616, "SHAPE_Area": 1.1445836314417976e-05, "CountHospedaje": 0 }, "geometry": { "type": "Point", "coordinates": [ -74.063489428326704, 4.657466212902425 ] } },
{ "type": "Feature", "properties": { "OBJECTID": 162, "SCaCodigo": "101307", "SCaTipo": 1, "SCaNombre": "TIHUAQUE RURAL", "SHAPE_Length": 0.035531815850486891, "SHAPE_Area": 2.3995069383282133e-05, "CountHospedaje": 0 }, "geometry": { "type": "Point", "coordinates": [ -74.080126127602426, 4.501770955621158 ] } },
{ "type": "Feature", "properties": { "OBJECTID": 163, "SCaCodigo": "004101", "SCaTipo": 0, "SCaNombre": "RICAURTE", "SHAPE_Length": 0.030746309437339314, "SHAPE_Area": 5.4893566414690783e-05, "CountHospedaje": 1 }, "geometry": { "type": "Point", "coordinates": [ -74.092862501629867, 4.608554600156744 ] } },
{ "type": "Feature", "properties": { "OBJECTID": 164, "SCaCodigo": "002506", "SCaTipo": 0, "SCaNombre": "GRAN YOMASA", "SHAPE_Length": 0.031583693530092889, "SHAPE_Area": 2.7025929491019752e-05, "CountHospedaje": 0 }, "geometry": { "type": "Point", "coordinates": [ -74.110632794615697, 4.508165036788662 ] } },
{ "type": "Feature", "properties": { "OBJECTID": 165, "SCaCodigo": "002504", "SCaTipo": 0, "SCaNombre": "COMPARTIR", "SHAPE_Length": 0.021771958069728467, "SHAPE_Area": 1.257246120529041e-05, "CountHospedaje": 0 }, "geometry": { "type": "Point", "coordinates": [ -74.146836954850556, 4.557111513040133 ] } },
{ "type": "Feature", "properties": { "OBJECTID": 166, "SCaCodigo": "001430", "SCaTipo": 0, "SCaNombre": "VILLA DE LOS ALPES I", "SHAPE_Length": 0.019205142912430338, "SHAPE_Area": 1.1574799486093164e-05, "CountHospedaje": 0 }, "geometry": { "type": "Point", "coordinates": [ -74.098986376819781, 4.56229494619801 ] } },
{ "type": "Feature", "properties": { "OBJECTID": 167, "SCaCodigo": "001109", "SCaTipo": 0, "SCaNombre": "LA MARIA", "SHAPE_Length": 0.026236315759092958, "SHAPE_Area": 1.6205464347755744e-05, "CountHospedaje": 0 }, "geometry": { "type": "Point", "coordinates": [ -74.081412862814105, 4.576022498729959 ] } },
{ "type": "Feature", "properties": { "OBJECTID": 168, "SCaCodigo": "006515", "SCaTipo": 0, "SCaNombre": "VALLADOLID", "SHAPE_Length": 0.024682172020098009, "SHAPE_Area": 2.9300320860059358e-05, "CountHospedaje": 0 }, "geometry": { "type": "Point", "coordinates": [ -74.146843985948792, 4.645423472558956 ] } },
{ "type": "Feature", "properties": { "OBJECTID": 169, "SCaCodigo": "006409", "SCaTipo": 0, "SCaNombre": "BELEN FONTIBON", "SHAPE_Length": 0.037877922522046546, "SHAPE_Area": 4.0427992168253145e-05, "CountHospedaje": 0 }, "geometry": { "type": "Point", "coordinates": [ -74.149796124706398, 4.68199846104153 ] } },
{ "type": "Feature", "properties": { "OBJECTID": 170, "SCaCodigo": "001206", "SCaTipo": 0, "SCaNombre": "QUINTA RAMOS", "SHAPE_Length": 0.0094606341872736123, "SHAPE_Area": 5.9408494604490429e-06, "CountHospedaje": 0 }, "geometry": { "type": "Point", "coordinates": [ -74.088244494813381, 4.578908700262285 ] } },
{ "type": "Feature", "properties": { "OBJECTID": 171, "SCaCodigo": "002586", "SCaTipo": 0, "SCaNombre": "YOMASA NORTE", "SHAPE_Length": 0.028145548596419222, "SHAPE_Area": 3.1272970493512872e-05, "CountHospedaje": 0 }, "geometry": { "type": "Point", "coordinates": [ -74.121642518866537, 4.500938886902468 ] } },
{ "type": "Feature", "properties": { "OBJECTID": 172, "SCaCodigo": "001304", "SCaTipo": 0, "SCaNombre": "BELLO HORIZONTE", "SHAPE_Length": 0.024761445402606198, "SHAPE_Area": 3.0169952409279899e-05, "CountHospedaje": 0 }, "geometry": { "type": "Point", "coordinates": [ -74.093243621882976, 4.561701475197819 ] } },
{ "type": "Feature", "properties": { "OBJECTID": 173, "SCaCodigo": "002444", "SCaTipo": 0, "SCaNombre": "SIERRA MORENA II", "SHAPE_Length": 0.019096580435228029, "SHAPE_Area": 1.1032582061509748e-05, "CountHospedaje": 0 }, "geometry": { "type": "Point", "coordinates": [ -74.167553129813413, 4.576360365727363 ] } },
{ "type": "Feature", "properties": { "OBJECTID": 174, "SCaCodigo": "002532", "SCaTipo": 0, "SCaNombre": "QUINTAS DEL SUR", "SHAPE_Length": 0.013530291924064856, "SHAPE_Area": 5.2888582014123219e-06, "CountHospedaje": 0 }, "geometry": { "type": "Point", "coordinates": [ -74.139754743104547, 4.546514781789667 ] } },
{ "type": "Feature", "properties": { "OBJECTID": 175, "SCaCodigo": "004554", "SCaTipo": 0, "SCaNombre": "PATIO BONITO", "SHAPE_Length": 0.024616038775303214, "SHAPE_Area": 2.6886952731590746e-05, "CountHospedaje": 0 }, "geometry": { "type": "Point", "coordinates": [ -74.161266124130108, 4.639294518154567 ] } },
{ "type": "Feature", "properties": { "OBJECTID": 176, "SCaCodigo": "002571", "SCaTipo": 0, "SCaNombre": "ANTONIO JOSE DE SUCRE", "SHAPE_Length": 0.015138115770566901, "SHAPE_Area": 1.1162312859809237e-05, "CountHospedaje": 0 }, "geometry": { "type": "Point", "coordinates": [ -74.114611533887569, 4.492645887859536 ] } },
{ "type": "Feature", "properties": { "OBJECTID": 177, "SCaCodigo": "009240", "SCaTipo": 0, "SCaNombre": "POTRERILLO", "SHAPE_Length": 0.010398888090648421, "SHAPE_Area": 6.4662862981709104e-06, "CountHospedaje": 0 }, "geometry": { "type": "Point", "coordinates": [ -74.095878776544438, 4.736417506382785 ] } },
{ "type": "Feature", "properties": { "OBJECTID": 178, "SCaCodigo": "208203", "SCaTipo": 2, "SCaNombre": "LA ESTRELLITA", "SHAPE_Length": 0.013137195132456186, "SHAPE_Area": 6.7148146439050246e-06, "CountHospedaje": 0 }, "geometry": { "type": "Point", "coordinates": [ -74.022290554619602, 4.762047204406363 ] } },
{ "type": "Feature", "properties": { "OBJECTID": 179, "SCaCodigo": "002530", "SCaTipo": 0, "SCaNombre": "QUIBA", "SHAPE_Length": 0.025179043812740907, "SHAPE_Area": 1.7183131688473007e-05, "CountHospedaje": 0 }, "geometry": { "type": "Point", "coordinates": [ -74.142412756822566, 4.538497822794704 ] } },
{ "type": "Feature", "properties": { "OBJECTID": 180, "SCaCodigo": "005201", "SCaTipo": 0, "SCaNombre": "JORGE ELIECER GAITAN", "SHAPE_Length": 0.03096813925102327, "SHAPE_Area": 3.8004506524242326e-05, "CountHospedaje": 0 }, "geometry": { "type": "Point", "coordinates": [ -74.072634955904945, 4.675294498690369 ] } },
{ "type": "Feature", "properties": { "OBJECTID": 181, "SCaCodigo": "002621", "SCaTipo": 0, "SCaNombre": "SAN FELIPE DE USME", "SHAPE_Length": 0.02268200139660391, "SHAPE_Area": 1.0572891223799036e-05, "CountHospedaje": 0 }, "geometry": { "type": "Point", "coordinates": [ -74.099302194715136, 4.50206214312166 ] } },
{ "type": "Feature", "properties": { "OBJECTID": 182, "SCaCodigo": "001103", "SCaTipo": 0, "SCaNombre": "VITELMA", "SHAPE_Length": 0.027319618152427051, "SHAPE_Area": 2.0221650387611018e-05, "CountHospedaje": 0 }, "geometry": { "type": "Point", "coordinates": [ -74.077078106079952, 4.575928083764592 ] } },
{ "type": "Feature", "properties": { "OBJECTID": 183, "SCaCodigo": "001104", "SCaTipo": 0, "SCaNombre": "MOLINOS DE ORIENTE", "SHAPE_Length": 0.0072898131062032667, "SHAPE_Area": 2.6784508203485453e-06, "CountHospedaje": 0 }, "geometry": { "type": "Point", "coordinates": [ -74.069397588112366, 4.567726351013743 ] } },
{ "type": "Feature", "properties": { "OBJECTID": 184, "SCaCodigo": "003107", "SCaTipo": 0, "SCaNombre": "SANTA INES", "SHAPE_Length": 0.021604346790336057, "SHAPE_Area": 2.6635013799557097e-05, "CountHospedaje": 0 }, "geometry": { "type": "Point", "coordinates": [ -74.081036570889893, 4.598846499246786 ] } },
{ "type": "Feature", "properties": { "OBJECTID": 185, "SCaCodigo": "004538", "SCaTipo": 0, "SCaNombre": "OLARTE", "SHAPE_Length": 0.028489779845513614, "SHAPE_Area": 4.2064369950830721e-05, "CountHospedaje": 2 }, "geometry": { "type": "Point", "coordinates": [ -74.164775151761106, 4.599863984454665 ] } },
{ "type": "Feature", "properties": { "OBJECTID": 186, "SCaCodigo": "009251", "SCaTipo": 0, "SCaNombre": "SAN CARLOS DE SUBA", "SHAPE_Length": 0.014732576779631747, "SHAPE_Area": 8.4616050048393609e-06, "CountHospedaje": 0 }, "geometry": { "type": "Point", "coordinates": [ -74.11322528648823, 4.749694869655918 ] } },
{ "type": "Feature", "properties": { "OBJECTID": 187, "SCaCodigo": "002308", "SCaTipo": 0, "SCaNombre": "CLARET", "SHAPE_Length": 0.023789012309353638, "SHAPE_Area": 3.017498209782791e-05, "CountHospedaje": 0 }, "geometry": { "type": "Point", "coordinates": [ -74.127783412827085, 4.583198912944178 ] } },
{ "type": "Feature", "properties": { "OBJECTID": 188, "SCaCodigo": "002436", "SCaTipo": 0, "SCaNombre": "BELLAVISTA", "SHAPE_Length": 0.019122390013222097, "SHAPE_Area": 1.783979229761624e-05, "CountHospedaje": 0 }, "geometry": { "type": "Point", "coordinates": [ -74.160564242371663, 4.57549720707055 ] } },
{ "type": "Feature", "properties": { "OBJECTID": 189, "SCaCodigo": "004603", "SCaTipo": 0, "SCaNombre": "EL PARAISO", "SHAPE_Length": 0.016649474534833814, "SHAPE_Area": 7.793375603117859e-06, "CountHospedaje": 0 }, "geometry": { "type": "Point", "coordinates": [ -74.170718687067648, 4.642778387141452 ] } },
{ "type": "Feature", "properties": { "OBJECTID": 190, "SCaCodigo": "006201", "SCaTipo": 0, "SCaNombre": "EL RECUERDO", "SHAPE_Length": 0.025774084315736058, "SHAPE_Area": 2.7357350737983262e-05, "CountHospedaje": 0 }, "geometry": { "type": "Point", "coordinates": [ -74.087122976614936, 4.631410494908935 ] } },
{ "type": "Feature", "properties": { "OBJECTID": 191, "SCaCodigo": "008213", "SCaTipo": 0, "SCaNombre": "CHAPINERO CENTRAL", "SHAPE_Length": 0.026812194468442036, "SHAPE_Area": 3.6922575523106558e-05, "CountHospedaje": 0 }, "geometry": { "type": "Point", "coordinates": [ -74.063521190786858, 4.644708552667518 ] } },
{ "type": "Feature", "properties": { "OBJECTID": 192, "SCaCodigo": "005110", "SCaTipo": 0, "SCaNombre": "EL SALITRE", "SHAPE_Length": 0.028872649291285322, "SHAPE_Area": 4.9368519792326117e-05, "CountHospedaje": 1 }, "geometry": { "type": "Point", "coordinates": [ -74.098809656016229, 4.652362084675429 ] } },
{ "type": "Feature", "properties": { "OBJECTID": 193, "SCaCodigo": "009112", "SCaTipo": 0, "SCaNombre": "NIZA SUBA", "SHAPE_Length": 0.065212404737584911, "SHAPE_Area": 7.9655144945837839e-05, "CountHospedaje": 0 }, "geometry": { "type": "Point", "coordinates": [ -74.078296218996456, 4.719705348354253 ] } },
{ "type": "Feature", "properties": { "OBJECTID": 194, "SCaCodigo": "008419", "SCaTipo": 0, "SCaNombre": "ESCUELA DE CABALLERIA II", "SHAPE_Length": 0.0039153671330341092, "SHAPE_Area": 7.0825537328227422e-07, "CountHospedaje": 0 }, "geometry": { "type": "Point", "coordinates": [ -74.037364322747422, 4.680801702372715 ] } },
{ "type": "Feature", "properties": { "OBJECTID": 195, "SCaCodigo": "007103", "SCaTipo": 0, "SCaNombre": "LA MAGDALENA", "SHAPE_Length": 0.017724250632129304, "SHAPE_Area": 1.825719621426923e-05, "CountHospedaje": 0 }, "geometry": { "type": "Point", "coordinates": [ -74.070819659628157, 4.628008918325975 ] } },
{ "type": "Feature", "properties": { "OBJECTID": 196, "SCaCodigo": "005509", "SCaTipo": 0, "SCaNombre": "SAN JOAQUIN", "SHAPE_Length": 0.020214588092684348, "SHAPE_Area": 2.4974009877541197e-05, "CountHospedaje": 0 }, "geometry": { "type": "Point", "coordinates": [ -74.098992204974536, 4.677538014699026 ] } },
{ "type": "Feature", "properties": { "OBJECTID": 197, "SCaCodigo": "005672", "SCaTipo": 0, "SCaNombre": "LAS NAVETAS", "SHAPE_Length": 0.019934454506096485, "SHAPE_Area": 2.0090679679023281e-05, "CountHospedaje": 0 }, "geometry": { "type": "Point", "coordinates": [ -74.15880055438457, 4.706371337689845 ] } },
{ "type": "Feature", "properties": { "OBJECTID": 198, "SCaCodigo": "006408", "SCaTipo": 0, "SCaNombre": "EL CARMEN FONTIBON", "SHAPE_Length": 0.042800793951351335, "SHAPE_Area": 5.1516249417196992e-05, "CountHospedaje": 0 }, "geometry": { "type": "Point", "coordinates": [ -74.150574041700963, 4.67558958118329 ] } },
{ "type": "Feature", "properties": { "OBJECTID": 199, "SCaCodigo": "001114", "SCaTipo": 0, "SCaNombre": "VELODROMO", "SHAPE_Length": 0.022590385475011025, "SHAPE_Area": 1.8986887440170324e-05, "CountHospedaje": 0 }, "geometry": { "type": "Point", "coordinates": [ -74.087420424675585, 4.573069446139531 ] } },
{ "type": "Feature", "properties": { "OBJECTID": 200, "SCaCodigo": "007102", "SCaTipo": 0, "SCaNombre": "SANTA TERESITA", "SHAPE_Length": 0.02059623373139495, "SHAPE_Area": 1.6465922833059365e-05, "CountHospedaje": 0 }, "geometry": { "type": "Point", "coordinates": [ -74.07070249131624, 4.631748300545968 ] } },
{ "type": "Feature", "properties": { "OBJECTID": 201, "SCaCodigo": "002525", "SCaTipo": 0, "SCaNombre": "BARRANQUILLITA", "SHAPE_Length": 0.0269031479794598, "SHAPE_Area": 2.7966087848487416e-05, "CountHospedaje": 0 }, "geometry": { "type": "Point", "coordinates": [ -74.116534362108411, 4.523736053044764 ] } },
{ "type": "Feature", "properties": { "OBJECTID": 202, "SCaCodigo": "004508", "SCaTipo": 0, "SCaNombre": "CIUDAD KENNEDY OCCIDENTAL", "SHAPE_Length": 0.026122086166680557, "SHAPE_Area": 3.1599002086539322e-05, "CountHospedaje": 0 }, "geometry": { "type": "Point", "coordinates": [ -74.161157435730757, 4.62227138257098 ] } },
{ "type": "Feature", "properties": { "OBJECTID": 203, "SCaCodigo": "006103", "SCaTipo": 0, "SCaNombre": "SANTA FE", "SHAPE_Length": 0.031068058103458012, "SHAPE_Area": 5.7638592983667709e-05, "CountHospedaje": 0 }, "geometry": { "type": "Point", "coordinates": [ -74.077310968602916, 4.615872871640586 ] } },
{ "type": "Feature", "properties": { "OBJECTID": 204, "SCaCodigo": "002102", "SCaTipo": 0, "SCaNombre": "SAN ANTONIO", "SHAPE_Length": 0.029267778780948037, "SHAPE_Area": 4.9467724398190554e-05, "CountHospedaje": 1 }, "geometry": { "type": "Point", "coordinates": [ -74.094764480085118, 4.589933886853354 ] } },
{ "type": "Feature", "properties": { "OBJECTID": 205, "SCaCodigo": "002542", "SCaTipo": 0, "SCaNombre": "SERRANIAS", "SHAPE_Length": 0.011617193529976821, "SHAPE_Area": 5.4435657002529668e-06, "CountHospedaje": 0 }, "geometry": { "type": "Point", "coordinates": [ -74.113772373877708, 4.499380073927644 ] } },
{ "type": "Feature", "properties": { "OBJECTID": 206, "SCaCodigo": "002587", "SCaTipo": 0, "SCaNombre": "BRISAS DEL VOLADOR", "SHAPE_Length": 0.014097221697814934, "SHAPE_Area": 8.378047248902575e-06, "CountHospedaje": 0 }, "geometry": { "type": "Point", "coordinates": [ -74.155098666197091, 4.546655537283874 ] } },
{ "type": "Feature", "properties": { "OBJECTID": 207, "SCaCodigo": "006509", "SCaTipo": 0, "SCaNombre": "LUSITANIA", "SHAPE_Length": 0.031540412984995762, "SHAPE_Area": 4.8403008874506331e-05, "CountHospedaje": 0 }, "geometry": { "type": "Point", "coordinates": [ -74.122652803360282, 4.634436078990884 ] } },
{ "type": "Feature", "properties": { "OBJECTID": 208, "SCaCodigo": "006104", "SCaTipo": 0, "SCaNombre": "LA FAVORITA", "SHAPE_Length": 0.023472865039260049, "SHAPE_Area": 2.3475716810337464e-05, "CountHospedaje": 0 }, "geometry": { "type": "Point", "coordinates": [ -74.078645924393768, 4.609962615369093 ] } },
{ "type": "Feature", "properties": { "OBJECTID": 209, "SCaCodigo": "009238", "SCaTipo": 0, "SCaNombre": "SANTA TERESA DE SUBA", "SHAPE_Length": 0.042828297553160012, "SHAPE_Area": 4.4893040674198458e-05, "CountHospedaje": 0 }, "geometry": { "type": "Point", "coordinates": [ -74.098969498436446, 4.720866429292172 ] } },
{ "type": "Feature", "properties": { "OBJECTID": 210, "SCaCodigo": "201502", "SCaTipo": 2, "SCaNombre": "SIBERIA RURAL", "SHAPE_Length": 0.0068624488423612304, "SHAPE_Area": 2.2582800911898475e-06, "CountHospedaje": 0 }, "geometry": { "type": "Point", "coordinates": [ -74.056839745551201, 4.631250668277902 ] } },
{ "type": "Feature", "properties": { "OBJECTID": 211, "SCaCodigo": "001431", "SCaTipo": 0, "SCaNombre": "LA RESURRECCION I", "SHAPE_Length": 0.012423011623530631, "SHAPE_Area": 7.280561944868076e-06, "CountHospedaje": 0 }, "geometry": { "type": "Point", "coordinates": [ -74.109036629959078, 4.566230871775768 ] } },
{ "type": "Feature", "properties": { "OBJECTID": 212, "SCaCodigo": "005307", "SCaTipo": 0, "SCaNombre": "LOS ANDES", "SHAPE_Length": 0.032684873674714725, "SHAPE_Area": 5.5035941725938737e-05, "CountHospedaje": 0 }, "geometry": { "type": "Point", "coordinates": [ -74.070357115547225, 4.686317574037242 ] } },
{ "type": "Feature", "properties": { "OBJECTID": 213, "SCaCodigo": "006109", "SCaTipo": 0, "SCaNombre": "COLSEGUROS", "SHAPE_Length": 0.0081756739644616664, "SHAPE_Area": 4.0255966552812144e-06, "CountHospedaje": 0 }, "geometry": { "type": "Point", "coordinates": [ -74.085146525411432, 4.620945658861037 ] } },
{ "type": "Feature", "properties": { "OBJECTID": 214, "SCaCodigo": "004580", "SCaTipo": 0, "SCaNombre": "BOSA NOVA EL PORVENIR", "SHAPE_Length": 0.016583166621026664, "SHAPE_Area": 1.2591941180574369e-05, "CountHospedaje": 0 }, "geometry": { "type": "Point", "coordinates": [ -74.189856584485412, 4.621745411778649 ] } },
{ "type": "Feature", "properties": { "OBJECTID": 215, "SCaCodigo": "202506", "SCaTipo": 2, "SCaNombre": "EL NUEVO PORTAL II RURAL", "SHAPE_Length": 0.0071447746564755887, "SHAPE_Area": 2.2253366921058184e-06, "CountHospedaje": 0 }, "geometry": { "type": "Point", "coordinates": [ -74.096243595554441, 4.489585263446888 ] } },
{ "type": "Feature", "properties": { "OBJECTID": 216, "SCaCodigo": "107112", "SCaTipo": 1, "SCaNombre": "LA LOMITA", "SHAPE_Length": 0.11581857170051837, "SHAPE_Area": 0.00036798373577258636, "CountHospedaje": 0 }, "geometry": { "type": "Point", "coordinates": [ -74.072267749357806, 4.797771940738811 ] } },
{ "type": "Feature", "properties": { "OBJECTID": 217, "SCaCodigo": "002521", "SCaTipo": 0, "SCaNombre": "LUCERO ALTO", "SHAPE_Length": 0.021783165930680481, "SHAPE_Area": 2.0874617726225159e-05, "CountHospedaje": 0 }, "geometry": { "type": "Point", "coordinates": [ -74.13997968480048, 4.557919742142452 ] } },
{ "type": "Feature", "properties": { "OBJECTID": 218, "SCaCodigo": "002514", "SCaTipo": 0, "SCaNombre": "MEISSEN", "SHAPE_Length": 0.023992759534778176, "SHAPE_Area": 2.6884717692239648e-05, "CountHospedaje": 0 }, "geometry": { "type": "Point", "coordinates": [ -74.135807966701691, 4.559138690202269 ] } },
{ "type": "Feature", "properties": { "OBJECTID": 219, "SCaCodigo": "001321", "SCaTipo": 0, "SCaNombre": "SAN MARTIN SUR", "SHAPE_Length": 0.032749109929110537, "SHAPE_Area": 3.3884998838620331e-05, "CountHospedaje": 0 }, "geometry": { "type": "Point", "coordinates": [ -74.099620164433887, 4.551202383534429 ] } },
{ "type": "Feature", "properties": { "OBJECTID": 220, "SCaCodigo": "004209", "SCaTipo": 0, "SCaNombre": "SANTA MATILDE", "SHAPE_Length": 0.018283585233645278, "SHAPE_Area": 1.4864585466330891e-05, "CountHospedaje": 0 }, "geometry": { "type": "Point", "coordinates": [ -74.108475990129861, 4.601263622825797 ] } },
{ "type": "Feature", "properties": { "OBJECTID": 221, "SCaCodigo": "102604", "SCaTipo": 1, "SCaNombre": "LA REQUILINA RURAL II", "SHAPE_Length": 0.0076621275685082799, "SHAPE_Area": 2.9485426939325261e-06, "CountHospedaje": 0 }, "geometry": { "type": "Point", "coordinates": [ -74.12242095745863, 4.479831576389851 ] } },
{ "type": "Feature", "properties": { "OBJECTID": 222, "SCaCodigo": "002202", "SCaTipo": 0, "SCaNombre": "QUIROGA", "SHAPE_Length": 0.017636533672167998, "SHAPE_Area": 1.6745489347061722e-05, "CountHospedaje": 0 }, "geometry": { "type": "Point", "coordinates": [ -74.113296968696574, 4.580207080479686 ] } },
{ "type": "Feature", "properties": { "OBJECTID": 223, "SCaCodigo": "001418", "SCaTipo": 0, "SCaNombre": "MARRUECOS", "SHAPE_Length": 0.030482412814169555, "SHAPE_Area": 3.353922309509923e-05, "CountHospedaje": 1 }, "geometry": { "type": "Point", "coordinates": [ -74.114620820506147, 4.553040916008624 ] } },
{ "type": "Feature", "properties": { "OBJECTID": 224, "SCaCodigo": "004303", "SCaTipo": 0, "SCaNombre": "BARCELONA", "SHAPE_Length": 0.017748644899647052, "SHAPE_Area": 1.4432324384359026e-05, "CountHospedaje": 0 }, "geometry": { "type": "Point", "coordinates": [ -74.11499359425892, 4.618249105359342 ] } },
{ "type": "Feature", "properties": { "OBJECTID": 225, "SCaCodigo": "009216", "SCaTipo": 0, "SCaNombre": "LA GAITANA", "SHAPE_Length": 0.028035069642289422, "SHAPE_Area": 1.9966785411721217e-05, "CountHospedaje": 0 }, "geometry": { "type": "Point", "coordinates": [ -74.109102730769592, 4.742198456278356 ] } },
{ "type": "Feature", "properties": { "OBJECTID": 226, "SCaCodigo": "004502", "SCaTipo": 0, "SCaNombre": "HIPOTECHO OCCIDENTAL", "SHAPE_Length": 0.035636174064607215, "SHAPE_Area": 6.9618210055167796e-05, "CountHospedaje": 0 }, "geometry": { "type": "Point", "coordinates": [ -74.134402300480701, 4.621419584232886 ] } },
{ "type": "Feature", "properties": { "OBJECTID": 227, "SCaCodigo": "001403", "SCaTipo": 0, "SCaNombre": "HOSPITAL SAN CARLOS", "SHAPE_Length": 0.044647110711905656, "SHAPE_Area": 4.9024678181351412e-05, "CountHospedaje": 5 }, "geometry": { "type": "Point", "coordinates": [ -74.107902776886718, 4.571709339197491 ] } },
{ "type": "Feature", "properties": { "OBJECTID": 228, "SCaCodigo": "002559", "SCaTipo": 0, "SCaNombre": "LOS ALPES SUR", "SHAPE_Length": 0.019949818162650595, "SHAPE_Area": 1.3085106831624496e-05, "CountHospedaje": 0 }, "geometry": { "type": "Point", "coordinates": [ -74.153775655055256, 4.543050827563078 ] } },
{ "type": "Feature", "properties": { "OBJECTID": 229, "SCaCodigo": "005620", "SCaTipo": 0, "SCaNombre": "FLORENCIA", "SHAPE_Length": 0.02696807539650721, "SHAPE_Area": 3.5395924500826841e-05, "CountHospedaje": 0 }, "geometry": { "type": "Point", "coordinates": [ -74.108600637670037, 4.700115481046693 ] } },
{ "type": "Feature", "properties": { "OBJECTID": 230, "SCaCodigo": "002511", "SCaTipo": 0, "SCaNombre": "LA PICOTA", "SHAPE_Length": 0.05121125033897083, "SHAPE_Area": 5.6721595824444363e-05, "CountHospedaje": 0 }, "geometry": { "type": "Point", "coordinates": [ -74.118263963049742, 4.54749204051434 ] } },
{ "type": "Feature", "properties": { "OBJECTID": 231, "SCaCodigo": "002635", "SCaTipo": 0, "SCaNombre": "BRISAS DEL LLANO", "SHAPE_Length": 0.01128776666931733, "SHAPE_Area": 2.5762320916347195e-06, "CountHospedaje": 0 }, "geometry": { "type": "Point", "coordinates": [ -74.104554749337211, 4.485945098937034 ] } },
{ "type": "Feature", "properties": { "OBJECTID": 232, "SCaCodigo": "004574", "SCaTipo": 0, "SCaNombre": "CHARLES DE GAULLE", "SHAPE_Length": 0.0070787968070032247, "SHAPE_Area": 2.3736809697051153e-06, "CountHospedaje": 0 }, "geometry": { "type": "Point", "coordinates": [ -74.201090555090019, 4.606895607106122 ] } },
{ "type": "Feature", "properties": { "OBJECTID": 233, "SCaCodigo": "009113", "SCaTipo": 0, "SCaNombre": "SAN JOSE DE BAVARIA", "SHAPE_Length": 0.069659312462541784, "SHAPE_Area": 0.0001755062774673522, "CountHospedaje": 0 }, "geometry": { "type": "Point", "coordinates": [ -74.060853018345341, 4.763966413073946 ] } },
{ "type": "Feature", "properties": { "OBJECTID": 234, "SCaCodigo": "007206", "SCaTipo": 0, "SCaNombre": "BELALCAZAR", "SHAPE_Length": 0.025904087123980568, "SHAPE_Area": 2.1578556349708039e-05, "CountHospedaje": 0 }, "geometry": { "type": "Point", "coordinates": [ -74.077962317379118, 4.638235085406525 ] } },
{ "type": "Feature", "properties": { "OBJECTID": 235, "SCaCodigo": "009267", "SCaTipo": 0, "SCaNombre": "VILLA MARIA I", "SHAPE_Length": 0.019558916959860204, "SHAPE_Area": 1.4456822025034308e-05, "CountHospedaje": 0 }, "geometry": { "type": "Point", "coordinates": [ -74.101607765568417, 4.741585330365485 ] } },
{ "type": "Feature", "properties": { "OBJECTID": 236, "SCaCodigo": "005644", "SCaTipo": 0, "SCaNombre": "BOCHICA II", "SHAPE_Length": 0.040785848969564838, "SHAPE_Area": 6.0672402175018858e-05, "CountHospedaje": 1 }, "geometry": { "type": "Point", "coordinates": [ -74.109430611504777, 4.714847126846079 ] } },
{ "type": "Feature", "properties": { "OBJECTID": 237, "SCaCodigo": "005682", "SCaTipo": 0, "SCaNombre": "CIUDAD BACHUE II", "SHAPE_Length": 0.017072448642406868, "SHAPE_Area": 6.6657928995287073e-06, "CountHospedaje": 0 }, "geometry": { "type": "Point", "coordinates": [ -74.102067593064803, 4.716620848034747 ] } },
{ "type": "Feature", "properties": { "OBJECTID": 238, "SCaCodigo": "001423", "SCaTipo": 0, "SCaNombre": "ARBOLEDA SUR", "SHAPE_Length": 0.051682136729433593, "SHAPE_Area": 4.7519396525665727e-05, "CountHospedaje": 0 }, "geometry": { "type": "Point", "coordinates": [ -74.118392485706607, 4.563551284042777 ] } },
{ "type": "Feature", "properties": { "OBJECTID": 239, "SCaCodigo": "004607", "SCaTipo": 0, "SCaNombre": "CIUDAD DE CALI", "SHAPE_Length": 0.021543636813691029, "SHAPE_Area": 2.1675861087396128e-05, "CountHospedaje": 0 }, "geometry": { "type": "Point", "coordinates": [ -74.172342490438666, 4.641180255365237 ] } },
{ "type": "Feature", "properties": { "OBJECTID": 240, "SCaCodigo": "004626", "SCaTipo": 0, "SCaNombre": "LAS ACACIAS", "SHAPE_Length": 0.0080257795279984057, "SHAPE_Area": 3.385412031013037e-06, "CountHospedaje": 0 }, "geometry": { "type": "Point", "coordinates": [ -74.177627332481762, 4.649808033103201 ] } },
{ "type": "Feature", "properties": { "OBJECTID": 241, "SCaCodigo": "004601", "SCaTipo": 0, "SCaNombre": "CALANDAIMA", "SHAPE_Length": 0.02107014969744225, "SHAPE_Area": 2.5812603279915819e-05, "CountHospedaje": 0 }, "geometry": { "type": "Point", "coordinates": [ -74.167196400929868, 4.643531931055995 ] } },
{ "type": "Feature", "properties": { "OBJECTID": 242, "SCaCodigo": "004212", "SCaTipo": 0, "SCaNombre": "TIBANA", "SHAPE_Length": 0.021746205132025211, "SHAPE_Area": 2.2997356853630078e-05, "CountHospedaje": 0 }, "geometry": { "type": "Point", "coordinates": [ -74.106609005905753, 4.610958233673681 ] } },
{ "type": "Feature", "properties": { "OBJECTID": 243, "SCaCodigo": "008402", "SCaTipo": 0, "SCaNombre": "COUNTRY CLUB", "SHAPE_Length": 0.039652286851551595, "SHAPE_Area": 8.8924776040496571e-05, "CountHospedaje": 0 }, "geometry": { "type": "Point", "coordinates": [ -74.041785710337308, 4.712190179686373 ] } },
{ "type": "Feature", "properties": { "OBJECTID": 244, "SCaCodigo": "005308", "SCaTipo": 0, "SCaNombre": "RIONEGRO", "SHAPE_Length": 0.024804497823969415, "SHAPE_Area": 2.823581747593498e-05, "CountHospedaje": 0 }, "geometry": { "type": "Point", "coordinates": [ -74.065663743587507, 4.68301153500733 ] } },
{ "type": "Feature", "properties": { "OBJECTID": 245, "SCaCodigo": "002564", "SCaTipo": 0, "SCaNombre": "EL MINUTO DE MARIA", "SHAPE_Length": 0.023059956459179746, "SHAPE_Area": 1.2089603044826522e-05, "CountHospedaje": 0 }, "geometry": { "type": "Point", "coordinates": [ -74.142314196734176, 4.536171458431247 ] } },
{ "type": "Feature", "properties": { "OBJECTID": 246, "SCaCodigo": "003109", "SCaTipo": 0, "SCaNombre": "VERACRUZ", "SHAPE_Length": 0.023272461960395823, "SHAPE_Area": 2.8530220270358756e-05, "CountHospedaje": 0 }, "geometry": { "type": "Point", "coordinates": [ -74.072262625061796, 4.603319427411416 ] } },
{ "type": "Feature", "properties": { "OBJECTID": 247, "SCaCodigo": "002570", "SCaTipo": 0, "SCaNombre": "EL MIRADOR", "SHAPE_Length": 0.045969024882033548, "SHAPE_Area": 4.8221291190148624e-05, "CountHospedaje": 0 }, "geometry": { "type": "Point", "coordinates": [ -74.156368904085539, 4.553505111549535 ] } },
{ "type": "Feature", "properties": { "OBJECTID": 248, "SCaCodigo": "004611", "SCaTipo": 0, "SCaNombre": "EL JAZMIN", "SHAPE_Length": 0.016439288609195826, "SHAPE_Area": 1.3499056386061265e-05, "CountHospedaje": 0 }, "geometry": { "type": "Point", "coordinates": [ -74.178356633443997, 4.646036231366232 ] } },
{ "type": "Feature", "properties": { "OBJECTID": 249, "SCaCodigo": "103109", "SCaTipo": 1, "SCaNombre": "LAS SOPAS", "SHAPE_Length": 0.43759586278966711, "SHAPE_Area": 0.0083018468843587111, "CountHospedaje": 0 }, "geometry": { "type": "Point", "coordinates": [ -74.208883007622347, 4.08355015987035 ] } },
{ "type": "Feature", "properties": { "OBJECTID": 250, "SCaCodigo": "005661", "SCaTipo": 0, "SCaNombre": "LUIS CARLOS GALAN", "SHAPE_Length": 0.017937862439157248, "SHAPE_Area": 8.4284460984871513e-06, "CountHospedaje": 0 }, "geometry": { "type": "Point", "coordinates": [ -74.097381798722154, 4.715981991212116 ] } },
{ "type": "Feature", "properties": { "OBJECTID": 251, "SCaCodigo": "004201", "SCaTipo": 0, "SCaNombre": "PENSILVANIA", "SHAPE_Length": 0.033440705735240307, "SHAPE_Area": 6.79050363833726e-05, "CountHospedaje": 0 }, "geometry": { "type": "Point", "coordinates": [ -74.097615497324881, 4.612635038469699 ] } },
{ "type": "Feature", "properties": { "OBJECTID": 252, "SCaCodigo": "008518", "SCaTipo": 0, "SCaNombre": "CAOBOS SALAZAR", "SHAPE_Length": 0.032673600506144498, "SHAPE_Area": 6.093836287733165e-05, "CountHospedaje": 0 }, "geometry": { "type": "Point", "coordinates": [ -74.036359311841281, 4.729389661139106 ] } },
{ "type": "Feature", "properties": { "OBJECTID": 253, "SCaCodigo": "002513", "SCaTipo": 0, "SCaNombre": "LAS ACACIAS", "SHAPE_Length": 0.033397319145395385, "SHAPE_Area": 3.6694899374855648e-05, "CountHospedaje": 0 }, "geometry": { "type": "Point", "coordinates": [ -74.144201167333662, 4.562728660901175 ] } },
{ "type": "Feature", "properties": { "OBJECTID": 254, "SCaCodigo": "002408", "SCaTipo": 0, "SCaNombre": "FATIMA", "SHAPE_Length": 0.025228971876933844, "SHAPE_Area": 3.2045223431713082e-05, "CountHospedaje": 0 }, "geometry": { "type": "Point", "coordinates": [ -74.138010128342941, 4.58715488574729 ] } },
{ "type": "Feature", "properties": { "OBJECTID": 255, "SCaCodigo": "007101", "SCaTipo": 0, "SCaNombre": "LA SOLEDAD", "SHAPE_Length": 0.029863839742740463, "SHAPE_Area": 4.8947362566574356e-05, "CountHospedaje": 0 }, "geometry": { "type": "Point", "coordinates": [ -74.075739879475648, 4.629587610154099 ] } },
{ "type": "Feature", "properties": { "OBJECTID": 256, "SCaCodigo": "001108", "SCaTipo": 0, "SCaNombre": "SAN CRISTOBAL SUR", "SHAPE_Length": 0.053581624827103359, "SHAPE_Area": 5.3716281278482885e-05, "CountHospedaje": 1 }, "geometry": { "type": "Point", "coordinates": [ -74.080252523177379, 4.571179631241572 ] } },
{ "type": "Feature", "properties": { "OBJECTID": 257, "SCaCodigo": "002560", "SCaTipo": 0, "SCaNombre": "BELLAVISTA LUCERO ALTO", "SHAPE_Length": 0.025956996882779214, "SHAPE_Area": 1.7827740484892272e-05, "CountHospedaje": 0 }, "geometry": { "type": "Point", "coordinates": [ -74.145728245919528, 4.548436347042702 ] } },
{ "type": "Feature", "properties": { "OBJECTID": 258, "SCaCodigo": "006531", "SCaTipo": 0, "SCaNombre": "CIUDAD TECHO II", "SHAPE_Length": 0.043805748062233966, "SHAPE_Area": 6.5371729078051466e-05, "CountHospedaje": 0 }, "geometry": { "type": "Point", "coordinates": [ -74.151214801840567, 4.640288454934129 ] } },
{ "type": "Feature", "properties": { "OBJECTID": 259, "SCaCodigo": "201404", "SCaTipo": 2, "SCaNombre": "LA PEA RURAL", "SHAPE_Length": 0.0051910712526417662, "SHAPE_Area": 1.3962912514382356e-06, "CountHospedaje": 0 }, "geometry": { "type": "Point", "coordinates": [ -74.065255404777304, 4.586324718566159 ] } },
{ "type": "Feature", "properties": { "OBJECTID": 260, "SCaCodigo": "107101", "SCaTipo": 1, "SCaNombre": "GUAYMARAL", "SHAPE_Length": 0.16940292955034195, "SHAPE_Area": 0.0006722520853935821, "CountHospedaje": 0 }, "geometry": { "type": "Point", "coordinates": [ -74.071380024047656, 4.819483938350935 ] } },
{ "type": "Feature", "properties": { "OBJECTID": 261, "SCaCodigo": "205221", "SCaTipo": 2, "SCaNombre": "GALAN RURAL", "SHAPE_Length": 0.019057620624814312, "SHAPE_Area": 1.4600177340036945e-05, "CountHospedaje": 0 }, "geometry": { "type": "Point", "coordinates": [ -74.175633616429039, 4.653084416855783 ] } },
{ "type": "Feature", "properties": { "OBJECTID": 262, "SCaCodigo": "205402", "SCaTipo": 2, "SCaNombre": "EL CHARCO", "SHAPE_Length": 0.022422085274021893, "SHAPE_Area": 1.2425114653308774e-05, "CountHospedaje": 0 }, "geometry": { "type": "Point", "coordinates": [ -74.170234968589398, 4.696185717871151 ] } },
{ "type": "Feature", "properties": { "OBJECTID": 263, "SCaCodigo": "002573", "SCaTipo": 0, "SCaNombre": "ARBORIZADORA ALTA", "SHAPE_Length": 0.02206641350675765, "SHAPE_Area": 1.60630138483591e-05, "CountHospedaje": 0 }, "geometry": { "type": "Point", "coordinates": [ -74.159062975262984, 4.567400213426171 ] } },
{ "type": "Feature", "properties": { "OBJECTID": 264, "SCaCodigo": "009213", "SCaTipo": 0, "SCaNombre": "EL PINO", "SHAPE_Length": 0.03105044305385252, "SHAPE_Area": 3.8784639963415221e-05, "CountHospedaje": 1 }, "geometry": { "type": "Point", "coordinates": [ -74.091086478183072, 4.75009517942136 ] } },
{ "type": "Feature", "properties": { "OBJECTID": 265, "SCaCodigo": "009214", "SCaTipo": 0, "SCaNombre": "TUNA ALTA", "SHAPE_Length": 0.036722349462920502, "SHAPE_Area": 4.9210905863266517e-05, "CountHospedaje": 0 }, "geometry": { "type": "Point", "coordinates": [ -74.078228965512196, 4.753949202590803 ] } },
{ "type": "Feature", "properties": { "OBJECTID": 266, "SCaCodigo": "009207", "SCaTipo": 0, "SCaNombre": "VILLA ELISA", "SHAPE_Length": 0.029919424585934804, "SHAPE_Area": 3.9051316230550307e-05, "CountHospedaje": 0 }, "geometry": { "type": "Point", "coordinates": [ -74.088470751340168, 4.734859720554024 ] } },
{ "type": "Feature", "properties": { "OBJECTID": 267, "SCaCodigo": "004614", "SCaTipo": 0, "SCaNombre": "DINDALITO", "SHAPE_Length": 0.014975425022008855, "SHAPE_Area": 1.2490289339273798e-05, "CountHospedaje": 0 }, "geometry": { "type": "Point", "coordinates": [ -74.172656419226058, 4.635486912279331 ] } },
{ "type": "Feature", "properties": { "OBJECTID": 268, "SCaCodigo": "004203", "SCaTipo": 0, "SCaNombre": "LA ASUNCION", "SHAPE_Length": 0.020641447728496864, "SHAPE_Area": 2.3261379359551107e-05, "CountHospedaje": 0 }, "geometry": { "type": "Point", "coordinates": [ -74.10455617446425, 4.602890212501533 ] } },
{ "type": "Feature", "properties": { "OBJECTID": 269, "SCaCodigo": "002540", "SCaTipo": 0, "SCaNombre": "ESTRELLA DEL SUR", "SHAPE_Length": 0.02790308718865088, "SHAPE_Area": 2.5767971541009286e-05, "CountHospedaje": 0 }, "geometry": { "type": "Point", "coordinates": [ -74.144714991725948, 4.544770638981966 ] } },
{ "type": "Feature", "properties": { "OBJECTID": 270, "SCaCodigo": "001410", "SCaTipo": 0, "SCaNombre": "MARCO FIDEL SUAREZ", "SHAPE_Length": 0.027581351574168821, "SHAPE_Area": 1.9205840199713324e-05, "CountHospedaje": 0 }, "geometry": { "type": "Point", "coordinates": [ -74.120666102653701, 4.569206466369923 ] } },
{ "type": "Feature", "properties": { "OBJECTID": 271, "SCaCodigo": "002505", "SCaTipo": 0, "SCaNombre": "NUEVO SAN ANDRES", "SHAPE_Length": 0.013183505167614675, "SHAPE_Area": 8.6110393310412512e-06, "CountHospedaje": 0 }, "geometry": { "type": "Point", "coordinates": [ -74.119823673299038, 4.525160049855532 ] } },
{ "type": "Feature", "properties": { "OBJECTID": 272, "SCaCodigo": "002435", "SCaTipo": 0, "SCaNombre": "EL CHIRCAL SUR", "SHAPE_Length": 0.024001657778944405, "SHAPE_Area": 2.5026076317358941e-05, "CountHospedaje": 0 }, "geometry": { "type": "Point", "coordinates": [ -74.144788053305419, 4.570508945830865 ] } },
{ "type": "Feature", "properties": { "OBJECTID": 273, "SCaCodigo": "008111", "SCaTipo": 0, "SCaNombre": "CATALUNA", "SHAPE_Length": 0.016385318620284743, "SHAPE_Area": 1.469563496506757e-05, "CountHospedaje": 0 }, "geometry": { "type": "Point", "coordinates": [ -74.063558967028882, 4.62846859968599 ] } },
{ "type": "Feature", "properties": { "OBJECTID": 274, "SCaCodigo": "006101", "SCaTipo": 0, "SCaNombre": "FLORIDA", "SHAPE_Length": 0.02006931336961524, "SHAPE_Area": 1.5119301282546066e-05, "CountHospedaje": 0 }, "geometry": { "type": "Point", "coordinates": [ -74.080047478014563, 4.623532624654417 ] } },
{ "type": "Feature", "properties": { "OBJECTID": 275, "SCaCodigo": "004307", "SCaTipo": 0, "SCaNombre": "SAN GABRIEL", "SHAPE_Length": 0.020326833042544342, "SHAPE_Area": 1.4771537868622928e-05, "CountHospedaje": 0 }, "geometry": { "type": "Point", "coordinates": [ -74.118027781101304, 4.623019985159059 ] } },
{ "type": "Feature", "properties": { "OBJECTID": 276, "SCaCodigo": "109114", "SCaTipo": 1, "SCaNombre": "TUNAL BAJO", "SHAPE_Length": 0.12314592976400594, "SHAPE_Area": 0.00050382391428688365, "CountHospedaje": 0 }, "geometry": { "type": "Point", "coordinates": [ -74.351535491744045, 3.973745650700288 ] } },
{ "type": "Feature", "properties": { "OBJECTID": 277, "SCaCodigo": "009236", "SCaTipo": 0, "SCaNombre": "LA CAROLINA DE SUBA", "SHAPE_Length": 0.017082513675486181, "SHAPE_Area": 1.2547482213486003e-05, "CountHospedaje": 0 }, "geometry": { "type": "Point", "coordinates": [ -74.105389075024249, 4.727942432625595 ] } },
{ "type": "Feature", "properties": { "OBJECTID": 278, "SCaCodigo": "005640", "SCaTipo": 0, "SCaNombre": "BOLIVIA ORIENTAL", "SHAPE_Length": 0.033746987245944021, "SHAPE_Area": 3.2295605081874974e-05, "CountHospedaje": 0 }, "geometry": { "type": "Point", "coordinates": [ -74.108629548038593, 4.720353000689384 ] } },
{ "type": "Feature", "properties": { "OBJECTID": 279, "SCaCodigo": "005680", "SCaTipo": 0, "SCaNombre": "VILLA DEL MAR", "SHAPE_Length": 0.032354980228474425, "SHAPE_Area": 3.0425602975875716e-05, "CountHospedaje": 0 }, "geometry": { "type": "Point", "coordinates": [ -74.12251847131887, 4.700465583448654 ] } },
{ "type": "Feature", "properties": { "OBJECTID": 280, "SCaCodigo": "004609", "SCaTipo": 0, "SCaNombre": "LOS ALMENDROS", "SHAPE_Length": 0.016460879886882763, "SHAPE_Area": 1.4321163779853063e-05, "CountHospedaje": 0 }, "geometry": { "type": "Point", "coordinates": [ -74.175708776495156, 4.646672338766812 ] } },
{ "type": "Feature", "properties": { "OBJECTID": 281, "SCaCodigo": "001414", "SCaTipo": 0, "SCaNombre": "MOLINOS DEL SUR", "SHAPE_Length": 0.035467187452626163, "SHAPE_Area": 3.1666928916775651e-05, "CountHospedaje": 0 }, "geometry": { "type": "Point", "coordinates": [ -74.118669876341613, 4.556503758456161 ] } },
{ "type": "Feature", "properties": { "OBJECTID": 282, "SCaCodigo": "002633", "SCaTipo": 0, "SCaNombre": "LAS VIOLETAS", "SHAPE_Length": 0.011676886064758944, "SHAPE_Area": 5.9263900160593989e-06, "CountHospedaje": 0 }, "geometry": { "type": "Point", "coordinates": [ -74.08082686556223, 4.498912033113122 ] } },
{ "type": "Feature", "properties": { "OBJECTID": 283, "SCaCodigo": "003203", "SCaTipo": 0, "SCaNombre": "SANTA BARBARA", "SHAPE_Length": 0.029473282235625186, "SHAPE_Area": 3.1499714014402377e-05, "CountHospedaje": 0 }, "geometry": { "type": "Point", "coordinates": [ -74.077911418667242, 4.592276469631896 ] } },
{ "type": "Feature", "properties": { "OBJECTID": 284, "SCaCodigo": "004104", "SCaTipo": 0, "SCaNombre": "LA ESTANZUELA", "SHAPE_Length": 0.029466322014301799, "SHAPE_Area": 3.60955589408378e-05, "CountHospedaje": 0 }, "geometry": { "type": "Point", "coordinates": [ -74.087734506841002, 4.600045109092225 ] } },
{ "type": "Feature", "properties": { "OBJECTID": 285, "SCaCodigo": "003108", "SCaTipo": 0, "SCaNombre": "LA CAPUCHINA", "SHAPE_Length": 0.02116205212682809, "SHAPE_Area": 2.412748315072383e-05, "CountHospedaje": 0 }, "geometry": { "type": "Point", "coordinates": [ -74.077039147006047, 4.604769150134428 ] } },
{ "type": "Feature", "properties": { "OBJECTID": 286, "SCaCodigo": "006512", "SCaTipo": 0, "SCaNombre": "VILLA ALSACIA", "SHAPE_Length": 0.031802123387556905, "SHAPE_Area": 4.7511286504304682e-05, "CountHospedaje": 0 }, "geometry": { "type": "Point", "coordinates": [ -74.127073707224923, 4.643786247792571 ] } },
{ "type": "Feature", "properties": { "OBJECTID": 287, "SCaCodigo": "008522", "SCaTipo": 0, "SCaNombre": "EL ROCIO NORTE", "SHAPE_Length": 0.013464838868697922, "SHAPE_Area": 7.290154304215461e-06, "CountHospedaje": 0 }, "geometry": { "type": "Point", "coordinates": [ -74.028772629675117, 4.759533887768813 ] } },
{ "type": "Feature", "properties": { "OBJECTID": 288, "SCaCodigo": "005503", "SCaTipo": 0, "SCaNombre": "BELLAVISTA OCCIDENTAL", "SHAPE_Length": 0.022676193786833047, "SHAPE_Area": 2.9943597001277567e-05, "CountHospedaje": 0 }, "geometry": { "type": "Point", "coordinates": [ -74.089208482341562, 4.676457027680534 ] } },
{ "type": "Feature", "properties": { "OBJECTID": 289, "SCaCodigo": "008524", "SCaTipo": 0, "SCaNombre": "LA GRANJA NORTE", "SHAPE_Length": 0.029252061289773888, "SHAPE_Area": 4.214183841590896e-05, "CountHospedaje": 0 }, "geometry": { "type": "Point", "coordinates": [ -74.027152852761333, 4.749757328700341 ] } },
{ "type": "Feature", "properties": { "OBJECTID": 290, "SCaCodigo": "002595", "SCaTipo": 0, "SCaNombre": "LAGUNITAS URBANO", "SHAPE_Length": 0.028265007800028923, "SHAPE_Area": 1.9002789008818464e-05, "CountHospedaje": 0 }, "geometry": { "type": "Point", "coordinates": [ -74.146676395763919, 4.508171468066212 ] } },
{ "type": "Feature", "properties": { "OBJECTID": 291, "SCaCodigo": "004517", "SCaTipo": 0, "SCaNombre": "JACQUELINE", "SHAPE_Length": 0.031216914603666657, "SHAPE_Area": 3.9000987127975429e-05, "CountHospedaje": 0 }, "geometry": { "type": "Point", "coordinates": [ -74.163568742758969, 4.607858847458259 ] } },
{ "type": "Feature", "properties": { "OBJECTID": 292, "SCaCodigo": "202204", "SCaTipo": 2, "SCaNombre": "LA ESPERANZA SUR I", "SHAPE_Length": 0.012867780979265423, "SHAPE_Area": 7.045803946955997e-06, "CountHospedaje": 0 }, "geometry": { "type": "Point", "coordinates": [ -74.096484036755115, 4.507672876551937 ] } },
{ "type": "Feature", "properties": { "OBJECTID": 293, "SCaCodigo": "102407", "SCaTipo": 1, "SCaNombre": "TIBAQUE SUR", "SHAPE_Length": 0.020047333088873152, "SHAPE_Area": 1.3519907112041078e-05, "CountHospedaje": 0 }, "geometry": { "type": "Point", "coordinates": [ -74.090300583015178, 4.504122830724213 ] } },
{ "type": "Feature", "properties": { "OBJECTID": 294, "SCaCodigo": "002575", "SCaTipo": 0, "SCaNombre": "CERRO COLORADO", "SHAPE_Length": 0.040552195432321483, "SHAPE_Area": 6.4192319479524593e-05, "CountHospedaje": 0 }, "geometry": { "type": "Point", "coordinates": [ -74.157703043575651, 4.561609899686847 ] } },
{ "type": "Feature", "properties": { "OBJECTID": 295, "SCaCodigo": "004616", "SCaTipo": 0, "SCaNombre": "OSORIO X URBANO", "SHAPE_Length": 0.046464804330334515, "SHAPE_Area": 2.586747359988755e-05, "CountHospedaje": 0 }, "geometry": { "type": "Point", "coordinates": [ -74.183972311564688, 4.639689561572763 ] } },
{ "type": "Feature", "properties": { "OBJECTID": 296, "SCaCodigo": "009104", "SCaTipo": 0, "SCaNombre": "VICTORIA NORTE", "SHAPE_Length": 0.029846199736200608, "SHAPE_Area": 3.7125498642070507e-05, "CountHospedaje": 1 }, "geometry": { "type": "Point", "coordinates": [ -74.054827685599506, 4.732158690925917 ] } },
{ "type": "Feature", "properties": { "OBJECTID": 297, "SCaCodigo": "001404", "SCaTipo": 0, "SCaNombre": "SOSIEGO SUR", "SHAPE_Length": 0.027705269621746544, "SHAPE_Area": 3.384509102127341e-05, "CountHospedaje": 0 }, "geometry": { "type": "Point", "coordinates": [ -74.099395817987528, 4.573006898469572 ] } },
{ "type": "Feature", "properties": { "OBJECTID": 298, "SCaCodigo": "003104", "SCaTipo": 0, "SCaNombre": "LA CONCORDIA", "SHAPE_Length": 0.012079106537924175, "SHAPE_Area": 7.2550557415650045e-06, "CountHospedaje": 0 }, "geometry": { "type": "Point", "coordinates": [ -74.069468339721183, 4.59747532305189 ] } },
{ "type": "Feature", "properties": { "OBJECTID": 299, "SCaCodigo": "004617", "SCaTipo": 0, "SCaNombre": "TINTALITO", "SHAPE_Length": 0.019407712138566693, "SHAPE_Area": 9.6720488153857884e-06, "CountHospedaje": 0 }, "geometry": { "type": "Point", "coordinates": [ -74.170823716572656, 4.630578946577641 ] } },
{ "type": "Feature", "properties": { "OBJECTID": 300, "SCaCodigo": "001402", "SCaTipo": 0, "SCaNombre": "GUSTAVO RESTREPO", "SHAPE_Length": 0.034550236982731443, "SHAPE_Area": 4.2182168289109933e-05, "CountHospedaje": 0 }, "geometry": { "type": "Point", "coordinates": [ -74.108142292099259, 4.576088767064165 ] } },
{ "type": "Feature", "properties": { "OBJECTID": 301, "SCaCodigo": "008202", "SCaTipo": 0, "SCaNombre": "EMAUS", "SHAPE_Length": 0.01493951501030912, "SHAPE_Area": 1.0178147998144078e-05, "CountHospedaje": 0 }, "geometry": { "type": "Point", "coordinates": [ -74.055015022311949, 4.652804492046275 ] } },
{ "type": "Feature", "properties": { "OBJECTID": 302, "SCaCodigo": "004528", "SCaTipo": 0, "SCaNombre": "PASO ANCHO", "SHAPE_Length": 0.023194028463343352, "SHAPE_Area": 2.0345235301744139e-05, "CountHospedaje": 0 }, "geometry": { "type": "Point", "coordinates": [ -74.19331865017331, 4.611535969808249 ] } },
{ "type": "Feature", "properties": { "OBJECTID": 303, "SCaCodigo": "005304", "SCaTipo": 0, "SCaNombre": "LA CASTELLANA", "SHAPE_Length": 0.035627445908576437, "SHAPE_Area": 5.8992003002053989e-05, "CountHospedaje": 0 }, "geometry": { "type": "Point", "coordinates": [ -74.061134119709976, 4.683175040309774 ] } },
{ "type": "Feature", "properties": { "OBJECTID": 304, "SCaCodigo": "002555", "SCaTipo": 0, "SCaNombre": "SAN JUAN BAUTISTA", "SHAPE_Length": 0.020285379081086224, "SHAPE_Area": 9.7524147527212241e-06, "CountHospedaje": 4 }, "geometry": { "type": "Point", "coordinates": [ -74.119949580100709, 4.51402035538825 ] } },
{ "type": "Feature", "properties": { "OBJECTID": 305, "SCaCodigo": "006521", "SCaTipo": 0, "SCaNombre": "SABANA GRANDE", "SHAPE_Length": 0.047773654747048089, "SHAPE_Area": 7.2667475091271852e-05, "CountHospedaje": 0 }, "geometry": { "type": "Point", "coordinates": [ -74.152231557580293, 4.667275770838864 ] } },
{ "type": "Feature", "properties": { "OBJECTID": 306, "SCaCodigo": "004403", "SCaTipo": 0, "SCaNombre": "AUTOPISTA MUZU", "SHAPE_Length": 0.032727082243816451, "SHAPE_Area": 3.9465380017763496e-05, "CountHospedaje": 0 }, "geometry": { "type": "Point", "coordinates": [ -74.122486074589588, 4.597891395465346 ] } },
{ "type": "Feature", "properties": { "OBJECTID": 307, "SCaCodigo": "009107", "SCaTipo": 0, "SCaNombre": "PRADO VERANIEGO", "SHAPE_Length": 0.027013740890525946, "SHAPE_Area": 3.493191538480525e-05, "CountHospedaje": 0 }, "geometry": { "type": "Point", "coordinates": [ -74.055036719058208, 4.717010778257978 ] } },
{ "type": "Feature", "properties": { "OBJECTID": 308, "SCaCodigo": "002611", "SCaTipo": 0, "SCaNombre": "CHARALA", "SHAPE_Length": 0.025777634274971237, "SHAPE_Area": 1.7039866025412336e-05, "CountHospedaje": 0 }, "geometry": { "type": "Point", "coordinates": [ -74.107321355101391, 4.501731057281306 ] } },
{ "type": "Feature", "properties": { "OBJECTID": 309, "SCaCodigo": "004202", "SCaTipo": 0, "SCaNombre": "COMUNEROS", "SHAPE_Length": 0.023817131170637811, "SHAPE_Area": 3.3063034811382575e-05, "CountHospedaje": 0 }, "geometry": { "type": "Point", "coordinates": [ -74.102334094740314, 4.607152033150409 ] } },
{ "type": "Feature", "properties": { "OBJECTID": 310, "SCaCodigo": "004208", "SCaTipo": 0, "SCaNombre": "LOS EJIDOS", "SHAPE_Length": 0.039319229548507112, "SHAPE_Area": 5.7787121439807179e-05, "CountHospedaje": 0 }, "geometry": { "type": "Point", "coordinates": [ -74.100478874824191, 4.617894747179245 ] } },
{ "type": "Feature", "properties": { "OBJECTID": 311, "SCaCodigo": "008302", "SCaTipo": 0, "SCaNombre": "SEMINARIO", "SHAPE_Length": 0.032599739638848178, "SHAPE_Area": 3.8573932603633938e-05, "CountHospedaje": 0 }, "geometry": { "type": "Point", "coordinates": [ -74.038854482258628, 4.675038510735707 ] } },
{ "type": "Feature", "properties": { "OBJECTID": 312, "SCaCodigo": "105402", "SCaTipo": 1, "SCaNombre": "CHARCO RURAL", "SHAPE_Length": 0.042358921621141112, "SHAPE_Area": 6.736161824174581e-05, "CountHospedaje": 0 }, "geometry": { "type": "Point", "coordinates": [ -74.167806237052361, 4.701742194161862 ] } },
{ "type": "Feature", "properties": { "OBJECTID": 313, "SCaCodigo": "001211", "SCaTipo": 0, "SCaNombre": "POLICARPA", "SHAPE_Length": 0.013499839067722619, "SHAPE_Area": 1.1111529457930111e-05, "CountHospedaje": 0 }, "geometry": { "type": "Point", "coordinates": [ -74.088597521786951, 4.587050725765013 ] } },
{ "type": "Feature", "properties": { "OBJECTID": 314, "SCaCodigo": "105223", "SCaTipo": 1, "SCaNombre": "OSORIO XXIII", "SHAPE_Length": 0.042363722074389119, "SHAPE_Area": 6.5338863298474134e-05, "CountHospedaje": 0 }, "geometry": { "type": "Point", "coordinates": [ -74.190303138451782, 4.650128901700104 ] } },
{ "type": "Feature", "properties": { "OBJECTID": 315, "SCaCodigo": "006417", "SCaTipo": 0, "SCaNombre": "VILLA CARMENZA", "SHAPE_Length": 0.01477172136455655, "SHAPE_Area": 1.0687824790010325e-05, "CountHospedaje": 0 }, "geometry": { "type": "Point", "coordinates": [ -74.151029554947755, 4.681225477724158 ] } },
{ "type": "Feature", "properties": { "OBJECTID": 316, "SCaCodigo": "005605", "SCaTipo": 0, "SCaNombre": "EL ENCANTO", "SHAPE_Length": 0.02179228094494812, "SHAPE_Area": 2.6019618648717198e-05, "CountHospedaje": 0 }, "geometry": { "type": "Point", "coordinates": [ -74.105300729073249, 4.678616621158496 ] } },
{ "type": "Feature", "properties": { "OBJECTID": 317, "SCaCodigo": "202309", "SCaTipo": 2, "SCaNombre": "EL BOSQUE SUR ORIENTAL RURAL III", "SHAPE_Length": 0.015620346083864209, "SHAPE_Area": 9.2243065303293159e-06, "CountHospedaje": 0 }, "geometry": { "type": "Point", "coordinates": [ -74.080643169073866, 4.472997906170995 ] } },
{ "type": "Feature", "properties": { "OBJECTID": 318, "SCaCodigo": "001424", "SCaTipo": 0, "SCaNombre": "BARCELONA SUR", "SHAPE_Length": 0.013109802008446299, "SHAPE_Area": 4.7754380728318881e-06, "CountHospedaje": 0 }, "geometry": { "type": "Point", "coordinates": [ -74.10388140088682, 4.56489302107807 ] } },
{ "type": "Feature", "properties": { "OBJECTID": 319, "SCaCodigo": "004543", "SCaTipo": 0, "SCaNombre": "ALQUERIA LA FRAGUA", "SHAPE_Length": 0.020178260974095391, "SHAPE_Area": 2.1136531301500457e-05, "CountHospedaje": 0 }, "geometry": { "type": "Point", "coordinates": [ -74.13672807005031, 4.602609681040977 ] } },